{"type": "FeatureCollection", "features": [{"geometry": {"type": "Point", "coordinates": [-69.9886944904915, 12.523730468749996]}, "type": "Feature", "id": "0", "properties": {"name": "Aruba"}}, {"geometry": {"type": "Point", "coordinates": [65.1934520413799, 33.9240478515625]}, "type": "Feature", "id": "1", "properties": {"name": "Afghanistan"}}, {"geometry": {"type": "Point", "coordinates": [18.85934527386678, -11.920410156250007]}, "type": "Feature", "id": "2", "properties": {"name": "Angola"}}, {"geometry": {"type": "Point", "coordinates": [-63.08434869337452, 18.21103515624999]}, "type": "Feature", "id": "3", "properties": {"name": "Anguilla"}}, {"geometry": {"type": "Point", "coordinates": [20.00418241980948, 41.18210449218749]}, "type": "Feature", "id": "4", "properties": {"name": "Albania"}}, {"geometry": {"type": "Point", "coordinates": [20.052034931766254, 60.247143554687526]}, "type": "Feature", "id": "5", "properties": {"name": "\u00c5land"}}, {"geometry": {"type": "Point", "coordinates": [1.5720837651466764, 42.539599609374996]}, "type": "Feature", "id": "6", "properties": {"name": "Andorra"}}, {"geometry": {"type": "Point", "coordinates": [55.12542822635822, 24.344116210937486]}, "type": "Feature", "id": "7", "properties": {"name": "United Arab Emirates"}}, {"geometry": {"type": "Point", "coordinates": [-63.97132718629783, -37.08564453125003]}, "type": "Feature", "id": "8", "properties": {"name": "Argentina"}}, {"geometry": {"type": "Point", "coordinates": [44.8365940426354, 40.08747558593748]}, "type": "Feature", "id": "9", "properties": {"name": "Armenia"}}, {"geometry": {"type": "Point", "coordinates": [-170.71918420917655, -14.297167968750003]}, "type": "Feature", "id": "10", "properties": {"name": "American Samoa"}}, {"geometry": {"type": "Point", "coordinates": [66.35569175097574, -76.61899414062503]}, "type": "Feature", "id": "11", "properties": {"name": "Antarctica"}}, {"geometry": {"type": "Point", "coordinates": [123.583837890625, -12.429931640625007]}, "type": "Feature", "id": "12", "properties": {"name": "Ashmore and Cartier Is."}}, {"geometry": {"type": "Point", "coordinates": [70.2385538484902, -49.18691406249998]}, "type": "Feature", "id": "13", "properties": {"name": "Fr. S. Antarctic Lands"}}, {"geometry": {"type": "Point", "coordinates": [-61.785656296847634, 17.08398437500003]}, "type": "Feature", "id": "14", "properties": {"name": "Antigua and Barb."}}, {"geometry": {"type": "Point", "coordinates": [133.07650574087157, -24.93398437500003]}, "type": "Feature", "id": "15", "properties": {"name": "Australia"}}, {"geometry": {"type": "Point", "coordinates": [14.752072196470497, 47.70073242187499]}, "type": "Feature", "id": "16", "properties": {"name": "Austria"}}, {"geometry": {"type": "Point", "coordinates": [47.73150710048827, 40.13974609374998]}, "type": "Feature", "id": "17", "properties": {"name": "Azerbaijan"}}, {"geometry": {"type": "Point", "coordinates": [29.914368153032697, -3.3775390625000057]}, "type": "Feature", "id": "18", "properties": {"name": "Burundi"}}, {"geometry": {"type": "Point", "coordinates": [4.797571030140956, 50.503417968750014]}, "type": "Feature", "id": "19", "properties": {"name": "Belgium"}}, {"geometry": {"type": "Point", "coordinates": [2.2791753601394205, 9.302807617187476]}, "type": "Feature", "id": "20", "properties": {"name": "Benin"}}, {"geometry": {"type": "Point", "coordinates": [-1.2025408950600023, 12.252221679687494]}, "type": "Feature", "id": "21", "properties": {"name": "Burkina Faso"}}, {"geometry": {"type": "Point", "coordinates": [89.8681948123376, 23.68068847656251]}, "type": "Feature", "id": "22", "properties": {"name": "Bangladesh"}}, {"geometry": {"type": "Point", "coordinates": [25.159119777814723, 42.733178710937494]}, "type": "Feature", "id": "23", "properties": {"name": "Bulgaria"}}, {"geometry": {"type": "Point", "coordinates": [50.54902818100871, 26.030395507812496]}, "type": "Feature", "id": "24", "properties": {"name": "Bahrain"}}, {"geometry": {"type": "Point", "coordinates": [-78.37623118676184, 26.648266601562497]}, "type": "Feature", "id": "25", "properties": {"name": "Bahamas"}}, {"geometry": {"type": "Point", "coordinates": [17.92206393406046, 43.92824707031248]}, "type": "Feature", "id": "26", "properties": {"name": "Bosnia and Herz."}}, {"geometry": {"type": "Point", "coordinates": [-62.83724363404605, 17.903637695312497]}, "type": "Feature", "id": "27", "properties": {"name": "St-Barth\u00e9lemy"}}, {"geometry": {"type": "Point", "coordinates": [27.938983429939533, 53.737084960937494]}, "type": "Feature", "id": "28", "properties": {"name": "Belarus"}}, {"geometry": {"type": "Point", "coordinates": [-88.73734680069497, 17.1384033203125]}, "type": "Feature", "id": "29", "properties": {"name": "Belize"}}, {"geometry": {"type": "Point", "coordinates": [-64.7148084412062, 32.34482421875]}, "type": "Feature", "id": "30", "properties": {"name": "Bermuda"}}, {"geometry": {"type": "Point", "coordinates": [-64.0657771978343, -16.301953124999997]}, "type": "Feature", "id": "31", "properties": {"name": "Bolivia"}}, {"geometry": {"type": "Point", "coordinates": [-49.72302196623852, -14.223925781249996]}, "type": "Feature", "id": "32", "properties": {"name": "Brazil"}}, {"geometry": {"type": "Point", "coordinates": [-59.55058180348941, 13.174804687499993]}, "type": "Feature", "id": "33", "properties": {"name": "Barbados"}}, {"geometry": {"type": "Point", "coordinates": [114.490968843643, 4.502416992187527]}, "type": "Feature", "id": "34", "properties": {"name": "Brunei"}}, {"geometry": {"type": "Point", "coordinates": [90.32701614780055, 27.505737304687496]}, "type": "Feature", "id": "35", "properties": {"name": "Bhutan"}}, {"geometry": {"type": "Point", "coordinates": [24.47868581662711, -22.33676757812499]}, "type": "Feature", "id": "36", "properties": {"name": "Botswana"}}, {"geometry": {"type": "Point", "coordinates": [20.618658679694725, 6.595507812499989]}, "type": "Feature", "id": "37", "properties": {"name": "Central African Rep."}}, {"geometry": {"type": "Point", "coordinates": [-110.42654702241965, 56.8257568359375]}, "type": "Feature", "id": "38", "properties": {"name": "Canada"}}, {"geometry": {"type": "Point", "coordinates": [8.423423056845918, 46.793847656249994]}, "type": "Feature", "id": "39", "properties": {"name": "Switzerland"}}, {"geometry": {"type": "Point", "coordinates": [-71.50230520323586, -35.68442382812498]}, "type": "Feature", "id": "40", "properties": {"name": "Chile"}}, {"geometry": {"type": "Point", "coordinates": [98.5821741415082, 36.898583984374994]}, "type": "Feature", "id": "41", "properties": {"name": "China"}}, {"geometry": {"type": "Point", "coordinates": [-5.695146864551594, 7.531713867187513]}, "type": "Feature", "id": "42", "properties": {"name": "C\u00f4te d'Ivoire"}}, {"geometry": {"type": "Point", "coordinates": [13.613988278744763, 7.379443359374996]}, "type": "Feature", "id": "43", "properties": {"name": "Cameroon"}}, {"geometry": {"type": "Point", "coordinates": [22.43666782924108, -4.0594726562500085]}, "type": "Feature", "id": "44", "properties": {"name": "Dem. Rep. Congo"}}, {"geometry": {"type": "Point", "coordinates": [16.04036895589014, -0.6966796875000085]}, "type": "Feature", "id": "45", "properties": {"name": "Congo"}}, {"geometry": {"type": "Point", "coordinates": [-159.78864873557632, -21.218603515625006]}, "type": "Feature", "id": "46", "properties": {"name": "Cook Is."}}, {"geometry": {"type": "Point", "coordinates": [-72.58700887449018, 4.108740234374984]}, "type": "Feature", "id": "47", "properties": {"name": "Colombia"}}, {"geometry": {"type": "Point", "coordinates": [44.393419353182665, -12.196289062500007]}, "type": "Feature", "id": "48", "properties": {"name": "Comoros"}}, {"geometry": {"type": "Point", "coordinates": [-25.173805013677097, 17.058520507812545]}, "type": "Feature", "id": "49", "properties": {"name": "Cabo Verde"}}, {"geometry": {"type": "Point", "coordinates": [-83.65524454909627, 9.633374023437497]}, "type": "Feature", "id": "50", "properties": {"name": "Costa Rica"}}, {"geometry": {"type": "Point", "coordinates": [-77.95791667758431, 21.526708984375006]}, "type": "Feature", "id": "51", "properties": {"name": "Cuba"}}, {"geometry": {"type": "Point", "coordinates": [-68.98459671348806, 12.194946289062493]}, "type": "Feature", "id": "52", "properties": {"name": "Cura\u00e7ao"}}, {"geometry": {"type": "Point", "coordinates": [-81.26225721485972, 19.31733398437497]}, "type": "Feature", "id": "53", "properties": {"name": "Cayman Is."}}, {"geometry": {"type": "Point", "coordinates": [33.455564465140824, 35.31396484375]}, "type": "Feature", "id": "54", "properties": {"name": "N. Cyprus"}}, {"geometry": {"type": "Point", "coordinates": [32.977608227825385, 34.8798828125]}, "type": "Feature", "id": "55", "properties": {"name": "Cyprus"}}, {"geometry": {"type": "Point", "coordinates": [15.514645683115518, 49.809033203125]}, "type": "Feature", "id": "56", "properties": {"name": "Czechia"}}, {"geometry": {"type": "Point", "coordinates": [10.475182192556595, 51.075903320312506]}, "type": "Feature", "id": "57", "properties": {"name": "Germany"}}, {"geometry": {"type": "Point", "coordinates": [42.399782673946206, 11.784228515624996]}, "type": "Feature", "id": "58", "properties": {"name": "Djibouti"}}, {"geometry": {"type": "Point", "coordinates": [-61.35737025226052, 15.462499999999999]}, "type": "Feature", "id": "59", "properties": {"name": "Dominica"}}, {"geometry": {"type": "Point", "coordinates": [9.263784568944851, 56.263867187500026]}, "type": "Feature", "id": "60", "properties": {"name": "Denmark"}}, {"geometry": {"type": "Point", "coordinates": [-70.12398216909112, 18.76806640625]}, "type": "Feature", "id": "61", "properties": {"name": "Dominican Rep."}}, {"geometry": {"type": "Point", "coordinates": [0.5954450096841892, 27.9718505859375]}, "type": "Feature", "id": "62", "properties": {"name": "Algeria"}}, {"geometry": {"type": "Point", "coordinates": [-78.28298139366474, -1.7755371093749872]}, "type": "Feature", "id": "63", "properties": {"name": "Ecuador"}}, {"geometry": {"type": "Point", "coordinates": [29.455258701539837, 26.8239501953125]}, "type": "Feature", "id": "64", "properties": {"name": "Egypt"}}, {"geometry": {"type": "Point", "coordinates": [38.10520666273757, 15.176611328125027]}, "type": "Feature", "id": "65", "properties": {"name": "Eritrea"}}, {"geometry": {"type": "Point", "coordinates": [-3.487145017712741, 39.90651855468752]}, "type": "Feature", "id": "66", "properties": {"name": "Spain"}}, {"geometry": {"type": "Point", "coordinates": [25.501832892046863, 58.617187500000014]}, "type": "Feature", "id": "67", "properties": {"name": "Estonia"}}, {"geometry": {"type": "Point", "coordinates": [38.937567760782755, 9.184643554687497]}, "type": "Feature", "id": "68", "properties": {"name": "Ethiopia"}}, {"geometry": {"type": "Point", "coordinates": [27.439495239257845, 64.93371582031251]}, "type": "Feature", "id": "69", "properties": {"name": "Finland"}}, {"geometry": {"type": "Point", "coordinates": [177.97771350918524, -17.80302734375001]}, "type": "Feature", "id": "70", "properties": {"name": "Fiji"}}, {"geometry": {"type": "Point", "coordinates": [-58.76988940870497, -51.80146484374999]}, "type": "Feature", "id": "71", "properties": {"name": "Falkland Is."}}, {"geometry": {"type": "Point", "coordinates": [2.1944666934405417, 46.720117187499994]}, "type": "Feature", "id": "72", "properties": {"name": "France"}}, {"geometry": {"type": "Point", "coordinates": [-7.234858308655535, 62.08767089843751]}, "type": "Feature", "id": "73", "properties": {"name": "Faeroe Is."}}, {"geometry": {"type": "Point", "coordinates": [158.2422448542838, 6.887988281249974]}, "type": "Feature", "id": "74", "properties": {"name": "Micronesia"}}, {"geometry": {"type": "Point", "coordinates": [11.62635441026639, -0.856201171875]}, "type": "Feature", "id": "75", "properties": {"name": "Gabon"}}, {"geometry": {"type": "Point", "coordinates": [-1.9576480718536526, 54.350366210937466]}, "type": "Feature", "id": "76", "properties": {"name": "United Kingdom"}}, {"geometry": {"type": "Point", "coordinates": [43.63688195373298, 42.296044921874994]}, "type": "Feature", "id": "77", "properties": {"name": "Georgia"}}, {"geometry": {"type": "Point", "coordinates": [-2.586752219723652, 49.4595703125]}, "type": "Feature", "id": "78", "properties": {"name": "Guernsey"}}, {"geometry": {"type": "Point", "coordinates": [-1.0684913713760213, 7.977075195312516]}, "type": "Feature", "id": "79", "properties": {"name": "Ghana"}}, {"geometry": {"type": "Point", "coordinates": [-9.672454331433293, 9.949243164062494]}, "type": "Feature", "id": "80", "properties": {"name": "Guinea"}}, {"geometry": {"type": "Point", "coordinates": [-14.359946367764088, 13.4417724609375]}, "type": "Feature", "id": "81", "properties": {"name": "Gambia"}}, {"geometry": {"type": "Point", "coordinates": [-14.608895924133435, 11.802490234374993]}, "type": "Feature", "id": "82", "properties": {"name": "Guinea-Bissau"}}, {"geometry": {"type": "Point", "coordinates": [10.502327989465414, 1.6788818359374744]}, "type": "Feature", "id": "83", "properties": {"name": "Eq. Guinea"}}, {"geometry": {"type": "Point", "coordinates": [21.806924138213084, 39.08447265624997]}, "type": "Feature", "id": "84", "properties": {"name": "Greece"}}, {"geometry": {"type": "Point", "coordinates": [-61.674282249089885, 12.14680175781249]}, "type": "Feature", "id": "85", "properties": {"name": "Grenada"}}, {"geometry": {"type": "Point", "coordinates": [-37.63632297972367, 71.70083007812504]}, "type": "Feature", "id": "86", "properties": {"name": "Greenland"}}, {"geometry": {"type": "Point", "coordinates": [-90.28192328813358, 15.785351562499997]}, "type": "Feature", "id": "87", "properties": {"name": "Guatemala"}}, {"geometry": {"type": "Point", "coordinates": [144.78354671922932, 13.477783203125]}, "type": "Feature", "id": "88", "properties": {"name": "Guam"}}, {"geometry": {"type": "Point", "coordinates": [-58.960665858982765, 4.850512695312496]}, "type": "Feature", "id": "89", "properties": {"name": "Guyana"}}, {"geometry": {"type": "Point", "coordinates": [114.11595738232023, 22.432788085937517]}, "type": "Feature", "id": "90", "properties": {"name": "Hong Kong"}}, {"geometry": {"type": "Point", "coordinates": [73.50905805122524, -53.060546875]}, "type": "Feature", "id": "91", "properties": {"name": "Heard I. and McDonald Is."}}, {"geometry": {"type": "Point", "coordinates": [-87.24430250564512, 14.492944335937494]}, "type": "Feature", "id": "92", "properties": {"name": "Honduras"}}, {"geometry": {"type": "Point", "coordinates": [15.33991926201097, 44.73620605468746]}, "type": "Feature", "id": "93", "properties": {"name": "Croatia"}}, {"geometry": {"type": "Point", "coordinates": [-72.25003482060703, 18.953515625]}, "type": "Feature", "id": "94", "properties": {"name": "Haiti"}}, {"geometry": {"type": "Point", "coordinates": [19.118268407730476, 47.18466796874999]}, "type": "Feature", "id": "95", "properties": {"name": "Hungary"}}, {"geometry": {"type": "Point", "coordinates": [113.35194464550469, 0.09565429687496874]}, "type": "Feature", "id": "96", "properties": {"name": "Indonesia"}}, {"geometry": {"type": "Point", "coordinates": [-4.5113856764408045, 54.2461669921875]}, "type": "Feature", "id": "97", "properties": {"name": "Isle of Man"}}, {"geometry": {"type": "Point", "coordinates": [80.23129405113528, 21.78393554687503]}, "type": "Feature", "id": "98", "properties": {"name": "India"}}, {"geometry": {"type": "Point", "coordinates": [105.65385456218061, -10.502734374999996]}, "type": "Feature", "id": "99", "properties": {"name": "Indian Ocean Ter."}}, {"geometry": {"type": "Point", "coordinates": [72.41477945347012, -7.322070312500003]}, "type": "Feature", "id": "100", "properties": {"name": "Br. Indian Ocean Ter."}}, {"geometry": {"type": "Point", "coordinates": [-8.113534507268568, 53.42922363281248]}, "type": "Feature", "id": "101", "properties": {"name": "Ireland"}}, {"geometry": {"type": "Point", "coordinates": [54.05767666872498, 32.439624023437496]}, "type": "Feature", "id": "102", "properties": {"name": "Iran"}}, {"geometry": {"type": "Point", "coordinates": [42.486003277398034, 33.20202636718753]}, "type": "Feature", "id": "103", "properties": {"name": "Iraq"}}, {"geometry": {"type": "Point", "coordinates": [-18.442080246962032, 64.97783203125]}, "type": "Feature", "id": "104", "properties": {"name": "Iceland"}}, {"geometry": {"type": "Point", "coordinates": [34.66996045584983, 31.45104980468749]}, "type": "Feature", "id": "105", "properties": {"name": "Israel"}}, {"geometry": {"type": "Point", "coordinates": [12.670043752961861, 42.52080078124999]}, "type": "Feature", "id": "106", "properties": {"name": "Italy"}}, {"geometry": {"type": "Point", "coordinates": [-77.15643205518711, 18.09970703125]}, "type": "Feature", "id": "107", "properties": {"name": "Jamaica"}}, {"geometry": {"type": "Point", "coordinates": [-2.122538911182531, 49.20932617187499]}, "type": "Feature", "id": "108", "properties": {"name": "Jersey"}}, {"geometry": {"type": "Point", "coordinates": [36.30038758110939, 31.277685546874995]}, "type": "Feature", "id": "109", "properties": {"name": "Jordan"}}, {"geometry": {"type": "Point", "coordinates": [143.330634143648, 43.487695312499966]}, "type": "Feature", "id": "110", "properties": {"name": "Japan"}}, {"geometry": {"type": "Point", "coordinates": [77.2618725111444, 35.407250976562494]}, "type": "Feature", "id": "111", "properties": {"name": "Siachen Glacier"}}, {"geometry": {"type": "Point", "coordinates": [66.32328938802088, 47.983911132812494]}, "type": "Feature", "id": "112", "properties": {"name": "Kazakhstan"}}, {"geometry": {"type": "Point", "coordinates": [37.534872836669905, 0.44379882812498295]}, "type": "Feature", "id": "113", "properties": {"name": "Kenya"}}, {"geometry": {"type": "Point", "coordinates": [75.07264769959161, 41.21044921875002]}, "type": "Feature", "id": "114", "properties": {"name": "Kyrgyzstan"}}, {"geometry": {"type": "Point", "coordinates": [105.09925116973861, 12.554956054687494]}, "type": "Feature", "id": "115", "properties": {"name": "Cambodia"}}, {"geometry": {"type": "Point", "coordinates": [173.10427264109887, 1.3610595703124773]}, "type": "Feature", "id": "116", "properties": {"name": "Kiribati"}}, {"geometry": {"type": "Point", "coordinates": [-62.750669388856934, 17.321044921875014]}, "type": "Feature", "id": "117", "properties": {"name": "St. Kitts and Nevis"}}, {"geometry": {"type": "Point", "coordinates": [127.99554207074729, 36.45019531250003]}, "type": "Feature", "id": "118", "properties": {"name": "South Korea"}}, {"geometry": {"type": "Point", "coordinates": [20.896710677476122, 42.57626953125]}, "type": "Feature", "id": "119", "properties": {"name": "Kosovo"}}, {"geometry": {"type": "Point", "coordinates": [47.40448793525242, 29.311474609375015]}, "type": "Feature", "id": "120", "properties": {"name": "Kuwait"}}, {"geometry": {"type": "Point", "coordinates": [104.68256097719265, 18.207250976562534]}, "type": "Feature", "id": "121", "properties": {"name": "Laos"}}, {"geometry": {"type": "Point", "coordinates": [35.921264193802415, 33.867431640625]}, "type": "Feature", "id": "122", "properties": {"name": "Lebanon"}}, {"geometry": {"type": "Point", "coordinates": [-9.629049402165107, 6.4347900390624915]}, "type": "Feature", "id": "123", "properties": {"name": "Liberia"}}, {"geometry": {"type": "Point", "coordinates": [17.284228515625017, 26.385986328125]}, "type": "Feature", "id": "124", "properties": {"name": "Libya"}}, {"geometry": {"type": "Point", "coordinates": [-60.98025530656096, 13.890576171874997]}, "type": "Feature", "id": "125", "properties": {"name": "Saint Lucia"}}, {"geometry": {"type": "Point", "coordinates": [9.525688231814017, 47.165283203125]}, "type": "Feature", "id": "126", "properties": {"name": "Liechtenstein"}}, {"geometry": {"type": "Point", "coordinates": [80.65931070639243, 7.907470703124972]}, "type": "Feature", "id": "127", "properties": {"name": "Sri Lanka"}}, {"geometry": {"type": "Point", "coordinates": [28.169268234316476, -29.60908203125001]}, "type": "Feature", "id": "128", "properties": {"name": "Lesotho"}}, {"geometry": {"type": "Point", "coordinates": [24.164903622457476, 55.149975585937526]}, "type": "Feature", "id": "129", "properties": {"name": "Lithuania"}}, {"geometry": {"type": "Point", "coordinates": [6.081248936023387, 49.806811523437496]}, "type": "Feature", "id": "130", "properties": {"name": "Luxembourg"}}, {"geometry": {"type": "Point", "coordinates": [24.390497416771744, 56.86025390625]}, "type": "Feature", "id": "131", "properties": {"name": "Latvia"}}, {"geometry": {"type": "Point", "coordinates": [113.51146841212241, 22.219482421875]}, "type": "Feature", "id": "132", "properties": {"name": "Macao"}}, {"geometry": {"type": "Point", "coordinates": [-63.0552183337748, 18.097509765625]}, "type": "Feature", "id": "133", "properties": {"name": "St-Martin"}}, {"geometry": {"type": "Point", "coordinates": [-9.915022193678453, 28.655078124999996]}, "type": "Feature", "id": "134", "properties": {"name": "Morocco"}}, {"geometry": {"type": "Point", "coordinates": [7.409188258937563, 43.75183105468749]}, "type": "Feature", "id": "135", "properties": {"name": "Monaco"}}, {"geometry": {"type": "Point", "coordinates": [28.8230212895644, 46.971215820312494]}, "type": "Feature", "id": "136", "properties": {"name": "Moldova"}}, {"geometry": {"type": "Point", "coordinates": [46.71493266614378, -18.827734375]}, "type": "Feature", "id": "137", "properties": {"name": "Madagascar"}}, {"geometry": {"type": "Point", "coordinates": [73.41105260730008, 3.2607666015625227]}, "type": "Feature", "id": "138", "properties": {"name": "Maldives"}}, {"geometry": {"type": "Point", "coordinates": [-102.24213445994386, 23.63613281250005]}, "type": "Feature", "id": "139", "properties": {"name": "Mexico"}}, {"geometry": {"type": "Point", "coordinates": [171.65361014395341, 7.013159179687484]}, "type": "Feature", "id": "140", "properties": {"name": "Marshall Is."}}, {"geometry": {"type": "Point", "coordinates": [21.733222167487867, 41.59018554687499]}, "type": "Feature", "id": "141", "properties": {"name": "Macedonia"}}, {"geometry": {"type": "Point", "coordinates": [-0.7552316256587432, 17.56887207031248]}, "type": "Feature", "id": "142", "properties": {"name": "Mali"}}, {"geometry": {"type": "Point", "coordinates": [14.422258875758295, 35.92185058593749]}, "type": "Feature", "id": "143", "properties": {"name": "Malta"}}, {"geometry": {"type": "Point", "coordinates": [95.91990094127465, 19.27966308593747]}, "type": "Feature", "id": "144", "properties": {"name": "Myanmar"}}, {"geometry": {"type": "Point", "coordinates": [19.28240775393402, 42.708935546875]}, "type": "Feature", "id": "145", "properties": {"name": "Montenegro"}}, {"geometry": {"type": "Point", "coordinates": [105.4172003065035, 46.82463378906249]}, "type": "Feature", "id": "146", "properties": {"name": "Mongolia"}}, {"geometry": {"type": "Point", "coordinates": [145.20447926350437, 14.147509765624982]}, "type": "Feature", "id": "147", "properties": {"name": "N. Mariana Is."}}, {"geometry": {"type": "Point", "coordinates": [34.66830535888673, -18.660986328125006]}, "type": "Feature", "id": "148", "properties": {"name": "Mozambique"}}, {"geometry": {"type": "Point", "coordinates": [-11.490574229295731, 21.0224365234375]}, "type": "Feature", "id": "149", "properties": {"name": "Mauritania"}}, {"geometry": {"type": "Point", "coordinates": [-62.186774598661145, 16.74594726562499]}, "type": "Feature", "id": "150", "properties": {"name": "Montserrat"}}, {"geometry": {"type": "Point", "coordinates": [57.58030737932323, -20.277783203125004]}, "type": "Feature", "id": "151", "properties": {"name": "Mauritius"}}, {"geometry": {"type": "Point", "coordinates": [33.73810039035982, -13.307226562499984]}, "type": "Feature", "id": "152", "properties": {"name": "Malawi"}}, {"geometry": {"type": "Point", "coordinates": [102.10045910346807, 4.012597656250023]}, "type": "Feature", "id": "153", "properties": {"name": "Malaysia"}}, {"geometry": {"type": "Point", "coordinates": [17.19552612289834, -22.9447265625]}, "type": "Feature", "id": "154", "properties": {"name": "Namibia"}}, {"geometry": {"type": "Point", "coordinates": [165.25732474376287, -21.234374999999986]}, "type": "Feature", "id": "155", "properties": {"name": "New Caledonia"}}, {"geometry": {"type": "Point", "coordinates": [9.887136510253145, 17.706347656249996]}, "type": "Feature", "id": "156", "properties": {"name": "Niger"}}, {"geometry": {"type": "Point", "coordinates": [167.9510113740488, -29.055908203125007]}, "type": "Feature", "id": "157", "properties": {"name": "Norfolk Island"}}, {"geometry": {"type": "Point", "coordinates": [7.903491376376457, 9.072607421874991]}, "type": "Feature", "id": "158", "properties": {"name": "Nigeria"}}, {"geometry": {"type": "Point", "coordinates": [-85.54351112622894, 12.83056640625]}, "type": "Feature", "id": "159", "properties": {"name": "Nicaragua"}}, {"geometry": {"type": "Point", "coordinates": [-169.8691202084297, -19.057714843750006]}, "type": "Feature", "id": "160", "properties": {"name": "Niue"}}, {"geometry": {"type": "Point", "coordinates": [5.4912883827460925, 52.089453125000006]}, "type": "Feature", "id": "161", "properties": {"name": "Netherlands"}}, {"geometry": {"type": "Point", "coordinates": [22.674966648703464, 79.84211425781255]}, "type": "Feature", "id": "162", "properties": {"name": "Norway"}}, {"geometry": {"type": "Point", "coordinates": [83.07438345220186, 28.39091796875001]}, "type": "Feature", "id": "163", "properties": {"name": "Nepal"}}, {"geometry": {"type": "Point", "coordinates": [166.93217536659847, -0.5201660156250014]}, "type": "Feature", "id": "164", "properties": {"name": "Nauru"}}, {"geometry": {"type": "Point", "coordinates": [176.61015208020203, -38.008056640624964]}, "type": "Feature", "id": "165", "properties": {"name": "New Zealand"}}, {"geometry": {"type": "Point", "coordinates": [56.99241871640827, 20.85561523437501]}, "type": "Feature", "id": "166", "properties": {"name": "Oman"}}, {"geometry": {"type": "Point", "coordinates": [70.09930825074686, 30.414697265624998]}, "type": "Feature", "id": "167", "properties": {"name": "Pakistan"}}, {"geometry": {"type": "Point", "coordinates": [-81.48037143817443, 8.4111328125]}, "type": "Feature", "id": "168", "properties": {"name": "Panama"}}, {"geometry": {"type": "Point", "coordinates": [-128.3168678420921, -24.367675781250007]}, "type": "Feature", "id": "169", "properties": {"name": "Pitcairn Is."}}, {"geometry": {"type": "Point", "coordinates": [-75.7954684671538, -9.211181640625007]}, "type": "Feature", "id": "170", "properties": {"name": "Peru"}}, {"geometry": {"type": "Point", "coordinates": [125.23455314734285, 7.688842773437521]}, "type": "Feature", "id": "171", "properties": {"name": "Philippines"}}, {"geometry": {"type": "Point", "coordinates": [134.58913108312768, 7.5598632812499815]}, "type": "Feature", "id": "172", "properties": {"name": "Palau"}}, {"geometry": {"type": "Point", "coordinates": [144.35986815307157, -6.636962890624986]}, "type": "Feature", "id": "173", "properties": {"name": "Papua New Guinea"}}, {"geometry": {"type": "Point", "coordinates": [19.157769426892354, 51.931420898437494]}, "type": "Feature", "id": "174", "properties": {"name": "Poland"}}, {"geometry": {"type": "Point", "coordinates": [-66.40701768624317, 18.233276367187514]}, "type": "Feature", "id": "175", "properties": {"name": "Puerto Rico"}}, {"geometry": {"type": "Point", "coordinates": [126.81094219759177, 40.37111816406251]}, "type": "Feature", "id": "176", "properties": {"name": "North Korea"}}, {"geometry": {"type": "Point", "coordinates": [-8.304394075790384, 39.59365234375002]}, "type": "Feature", "id": "177", "properties": {"name": "Portugal"}}, {"geometry": {"type": "Point", "coordinates": [-58.481173675024166, -23.436572265624967]}, "type": "Feature", "id": "178", "properties": {"name": "Paraguay"}}, {"geometry": {"type": "Point", "coordinates": [35.260342805491234, 31.949096679687496]}, "type": "Feature", "id": "179", "properties": {"name": "Palestine"}}, {"geometry": {"type": "Point", "coordinates": [-139.01235033243114, -9.781542968750024]}, "type": "Feature", "id": "180", "properties": {"name": "Fr. Polynesia"}}, {"geometry": {"type": "Point", "coordinates": [51.15072213067323, 25.337109374999997]}, "type": "Feature", "id": "181", "properties": {"name": "Qatar"}}, {"geometry": {"type": "Point", "coordinates": [24.25187856790929, 45.956689453124994]}, "type": "Feature", "id": "182", "properties": {"name": "Romania"}}, {"geometry": {"type": "Point", "coordinates": [88.385900378918, 59.46494140625002]}, "type": "Feature", "id": "183", "properties": {"name": "Russia"}}, {"geometry": {"type": "Point", "coordinates": [29.973842706107966, -1.91386718750001]}, "type": "Feature", "id": "184", "properties": {"name": "Rwanda"}}, {"geometry": {"type": "Point", "coordinates": [-12.58594970703124, 24.231396484374997]}, "type": "Feature", "id": "185", "properties": {"name": "W. Sahara"}}, {"geometry": {"type": "Point", "coordinates": [44.67339956254419, 24.22270507812499]}, "type": "Feature", "id": "186", "properties": {"name": "Saudi Arabia"}}, {"geometry": {"type": "Point", "coordinates": [29.770105028381344, 15.447607421874999]}, "type": "Feature", "id": "187", "properties": {"name": "Sudan"}}, {"geometry": {"type": "Point", "coordinates": [29.10051837724118, 7.846142578124997]}, "type": "Feature", "id": "188", "properties": {"name": "S. Sudan"}}, {"geometry": {"type": "Point", "coordinates": [-14.659730638823778, 14.527099609374993]}, "type": "Feature", "id": "189", "properties": {"name": "Senegal"}}, {"geometry": {"type": "Point", "coordinates": [103.8230403118181, 1.3483398437499972]}, "type": "Feature", "id": "190", "properties": {"name": "Singapore"}}, {"geometry": {"type": "Point", "coordinates": [-36.461005711609104, -54.43129882812501]}, "type": "Feature", "id": "191", "properties": {"name": "S. Geo. and the Is."}}, {"geometry": {"type": "Point", "coordinates": [-14.361072781521107, -7.924023437500004]}, "type": "Feature", "id": "192", "properties": {"name": "Saint Helena"}}, {"geometry": {"type": "Point", "coordinates": [160.15284398923592, -9.612841796875024]}, "type": "Feature", "id": "193", "properties": {"name": "Solomon Is."}}, {"geometry": {"type": "Point", "coordinates": [-11.861726694483067, 8.448193359374997]}, "type": "Feature", "id": "194", "properties": {"name": "Sierra Leone"}}, {"geometry": {"type": "Point", "coordinates": [-88.91242277961766, 13.7978515625]}, "type": "Feature", "id": "195", "properties": {"name": "El Salvador"}}, {"geometry": {"type": "Point", "coordinates": [12.45739275015205, 43.9437744140625]}, "type": "Feature", "id": "196", "properties": {"name": "San Marino"}}, {"geometry": {"type": "Point", "coordinates": [46.09948881251411, 9.689624023437496]}, "type": "Feature", "id": "197", "properties": {"name": "Somaliland"}}, {"geometry": {"type": "Point", "coordinates": [46.88848067772416, 5.2885498046874915]}, "type": "Feature", "id": "198", "properties": {"name": "Somalia"}}, {"geometry": {"type": "Point", "coordinates": [-56.179183908437345, 46.78845214843753]}, "type": "Feature", "id": "199", "properties": {"name": "St. Pierre and Miquelon"}}, {"geometry": {"type": "Point", "coordinates": [21.00489694959572, 44.2071533203125]}, "type": "Feature", "id": "200", "properties": {"name": "Serbia"}}, {"geometry": {"type": "Point", "coordinates": [6.590606572895629, 0.17399902343748863]}, "type": "Feature", "id": "201", "properties": {"name": "S\u00e3o Tom\u00e9 and Principe"}}, {"geometry": {"type": "Point", "coordinates": [-56.1379470784854, 3.95151367187502]}, "type": "Feature", "id": "202", "properties": {"name": "Suriname"}}, {"geometry": {"type": "Point", "coordinates": [19.63901225103263, 48.68137207031249]}, "type": "Feature", "id": "203", "properties": {"name": "Slovakia"}}, {"geometry": {"type": "Point", "coordinates": [14.612744035065075, 46.148876953125]}, "type": "Feature", "id": "204", "properties": {"name": "Slovenia"}}, {"geometry": {"type": "Point", "coordinates": [14.916849363767836, 62.1898681640625]}, "type": "Feature", "id": "205", "properties": {"name": "Sweden"}}, {"geometry": {"type": "Point", "coordinates": [31.447467958089867, -26.566845703125004]}, "type": "Feature", "id": "206", "properties": {"name": "Swaziland"}}, {"geometry": {"type": "Point", "coordinates": [-63.05327553443408, 18.043408203124997]}, "type": "Feature", "id": "207", "properties": {"name": "Sint Maarten"}}, {"geometry": {"type": "Point", "coordinates": [55.487306811640266, -4.67167968750001]}, "type": "Feature", "id": "208", "properties": {"name": "Seychelles"}}, {"geometry": {"type": "Point", "coordinates": [38.553325448404024, 34.82871093749999]}, "type": "Feature", "id": "209", "properties": {"name": "Syria"}}, {"geometry": {"type": "Point", "coordinates": [-71.74554786286362, 21.812036132812494]}, "type": "Feature", "id": "210", "properties": {"name": "Turks and Caicos Is."}}, {"geometry": {"type": "Point", "coordinates": [18.53588467575388, 15.398046874999999]}, "type": "Feature", "id": "211", "properties": {"name": "Chad"}}, {"geometry": {"type": "Point", "coordinates": [1.0276124285596047, 8.614013671874993]}, "type": "Feature", "id": "212", "properties": {"name": "Togo"}}, {"geometry": {"type": "Point", "coordinates": [101.68016462951508, 13.022900390624983]}, "type": "Feature", "id": "213", "properties": {"name": "Thailand"}}, {"geometry": {"type": "Point", "coordinates": [70.92036895449002, 38.870263671874994]}, "type": "Feature", "id": "214", "properties": {"name": "Tajikistan"}}, {"geometry": {"type": "Point", "coordinates": [58.99751481365213, 38.96545410156253]}, "type": "Feature", "id": "215", "properties": {"name": "Turkmenistan"}}, {"geometry": {"type": "Point", "coordinates": [125.6966324136865, -8.927587890624991]}, "type": "Feature", "id": "216", "properties": {"name": "Timor-Leste"}}, {"geometry": {"type": "Point", "coordinates": [-175.2472114849636, -21.16503906250002]}, "type": "Feature", "id": "217", "properties": {"name": "Tonga"}}, {"geometry": {"type": "Point", "coordinates": [-61.25253832187834, 10.434326171875021]}, "type": "Feature", "id": "218", "properties": {"name": "Trinidad and Tobago"}}, {"geometry": {"type": "Point", "coordinates": [8.879213931904196, 33.78037109375]}, "type": "Feature", "id": "219", "properties": {"name": "Tunisia"}}, {"geometry": {"type": "Point", "coordinates": [35.498926019986804, 38.9476806640625]}, "type": "Feature", "id": "220", "properties": {"name": "Turkey"}}, {"geometry": {"type": "Point", "coordinates": [120.81955374550095, 23.589770507812503]}, "type": "Feature", "id": "221", "properties": {"name": "Taiwan"}}, {"geometry": {"type": "Point", "coordinates": [34.23626254800195, -6.36284179687501]}, "type": "Feature", "id": "222", "properties": {"name": "Tanzania"}}, {"geometry": {"type": "Point", "coordinates": [32.681934216996325, 1.3270019531249915]}, "type": "Feature", "id": "223", "properties": {"name": "Uganda"}}, {"geometry": {"type": "Point", "coordinates": [31.06986036093378, 48.800561523437466]}, "type": "Feature", "id": "224", "properties": {"name": "Ukraine"}}, {"geometry": {"type": "Point", "coordinates": [-55.80659352873214, -32.534863281250004]}, "type": "Feature", "id": "225", "properties": {"name": "Uruguay"}}, {"geometry": {"type": "Point", "coordinates": [-99.6873057048836, 37.25534667968748]}, "type": "Feature", "id": "226", "properties": {"name": "United States of America"}}, {"geometry": {"type": "Point", "coordinates": [63.40393132813901, 41.363989257812506]}, "type": "Feature", "id": "227", "properties": {"name": "Uzbekistan"}}, {"geometry": {"type": "Point", "coordinates": [12.433870849609393, 41.903100585937494]}, "type": "Feature", "id": "228", "properties": {"name": "Vatican"}}, {"geometry": {"type": "Point", "coordinates": [-61.20106437858822, 13.248632812499999]}, "type": "Feature", "id": "229", "properties": {"name": "St. Vin. and Gren."}}, {"geometry": {"type": "Point", "coordinates": [-65.4125643687341, 6.415820312500003]}, "type": "Feature", "id": "230", "properties": {"name": "Venezuela"}}, {"geometry": {"type": "Point", "coordinates": [-64.61976490254173, 18.424902343750006]}, "type": "Feature", "id": "231", "properties": {"name": "British Virgin Is."}}, {"geometry": {"type": "Point", "coordinates": [-64.76041927139653, 17.7281494140625]}, "type": "Feature", "id": "232", "properties": {"name": "U.S. Virgin Is."}}, {"geometry": {"type": "Point", "coordinates": [107.85145388404659, 15.970361328125051]}, "type": "Feature", "id": "233", "properties": {"name": "Vietnam"}}, {"geometry": {"type": "Point", "coordinates": [168.35624201410496, -17.66474609374999]}, "type": "Feature", "id": "234", "properties": {"name": "Vanuatu"}}, {"geometry": {"type": "Point", "coordinates": [-178.15157527457873, -14.269824218750024]}, "type": "Feature", "id": "235", "properties": {"name": "Wallis and Futuna Is."}}, {"geometry": {"type": "Point", "coordinates": [-172.45216587611606, -13.61176757812499]}, "type": "Feature", "id": "236", "properties": {"name": "Samoa"}}, {"geometry": {"type": "Point", "coordinates": [47.490727906110536, 15.85871582031254]}, "type": "Feature", "id": "237", "properties": {"name": "Yemen"}}, {"geometry": {"type": "Point", "coordinates": [26.094620575012684, -28.470214843750007]}, "type": "Feature", "id": "238", "properties": {"name": "South Africa"}}, {"geometry": {"type": "Point", "coordinates": [25.413404822550554, -13.101855468749996]}, "type": "Feature", "id": "239", "properties": {"name": "Zambia"}}, {"geometry": {"type": "Point", "coordinates": [29.349055443740482, -19.01308593750001]}, "type": "Feature", "id": "240", "properties": {"name": "Zimbabwe"}}]}