{"type": "FeatureCollection", "features": [{"geometry": {"type": "Point", "coordinates": [-69.9826771125094, 12.520880383840192]}, "type": "Feature", "id": "0", "properties": {"name": "Aruba"}}, {"geometry": {"type": "Point", "coordinates": [66.00473365578559, 33.83523072784669]}, "type": "Feature", "id": "1", "properties": {"name": "Afghanistan"}}, {"geometry": {"type": "Point", "coordinates": [17.537367681548865, -12.293360543793684]}, "type": "Feature", "id": "2", "properties": {"name": "Angola"}}, {"geometry": {"type": "Point", "coordinates": [-63.06498926535687, 18.223959502282636]}, "type": "Feature", "id": "3", "properties": {"name": "Anguilla"}}, {"geometry": {"type": "Point", "coordinates": [20.049833961088826, 41.14244989474518]}, "type": "Feature", "id": "4", "properties": {"name": "Albania"}}, {"geometry": {"type": "Point", "coordinates": [19.953287676037654, 60.21488687557757]}, "type": "Feature", "id": "5", "properties": {"name": "\u00c5land"}}, {"geometry": {"type": "Point", "coordinates": [1.5605437791792192, 42.542291021871755]}, "type": "Feature", "id": "6", "properties": {"name": "Andorra"}}, {"geometry": {"type": "Point", "coordinates": [54.300167101563915, 23.90528187849652]}, "type": "Feature", "id": "7", "properties": {"name": "United Arab Emirates"}}, {"geometry": {"type": "Point", "coordinates": [-65.17980692500288, -35.38134879526276]}, "type": "Feature", "id": "8", "properties": {"name": "Argentina"}}, {"geometry": {"type": "Point", "coordinates": [44.929932756355704, 40.28952569189011]}, "type": "Feature", "id": "9", "properties": {"name": "Armenia"}}, {"geometry": {"type": "Point", "coordinates": [-170.71802574559652, -14.30445997081536]}, "type": "Feature", "id": "10", "properties": {"name": "American Samoa"}}, {"geometry": {"type": "Point", "coordinates": [19.921089512195294, -80.50857913109479]}, "type": "Feature", "id": "11", "properties": {"name": "Antarctica"}}, {"geometry": {"type": "Point", "coordinates": [123.583837890625, -12.429931640625009]}, "type": "Feature", "id": "12", "properties": {"name": "Ashmore and Cartier Is."}}, {"geometry": {"type": "Point", "coordinates": [69.22666758447929, -49.248954849443926]}, "type": "Feature", "id": "13", "properties": {"name": "Fr. S. Antarctic Lands"}}, {"geometry": {"type": "Point", "coordinates": [-61.79469342704543, 17.277499598624903]}, "type": "Feature", "id": "14", "properties": {"name": "Antigua and Barb."}}, {"geometry": {"type": "Point", "coordinates": [134.49100008213412, -25.7328870417306]}, "type": "Feature", "id": "15", "properties": {"name": "Australia"}}, {"geometry": {"type": "Point", "coordinates": [14.12647609963783, 47.58549439203593]}, "type": "Feature", "id": "16", "properties": {"name": "Austria"}}, {"geometry": {"type": "Point", "coordinates": [47.54599878915452, 40.28827234710467]}, "type": "Feature", "id": "17", "properties": {"name": "Azerbaijan"}}, {"geometry": {"type": "Point", "coordinates": [29.875121564464443, -3.3593966574700715]}, "type": "Feature", "id": "18", "properties": {"name": "Burundi"}}, {"geometry": {"type": "Point", "coordinates": [4.638735756776446, 50.639589635085464]}, "type": "Feature", "id": "19", "properties": {"name": "Belgium"}}, {"geometry": {"type": "Point", "coordinates": [2.327852544487662, 9.641759702254515]}, "type": "Feature", "id": "20", "properties": {"name": "Benin"}}, {"geometry": {"type": "Point", "coordinates": [-1.7545660091443642, 12.269538457425359]}, "type": "Feature", "id": "21", "properties": {"name": "Burkina Faso"}}, {"geometry": {"type": "Point", "coordinates": [90.23812743228265, 23.867311580033665]}, "type": "Feature", "id": "22", "properties": {"name": "Bangladesh"}}, {"geometry": {"type": "Point", "coordinates": [25.21552908632331, 42.76890317971578]}, "type": "Feature", "id": "23", "properties": {"name": "Bulgaria"}}, {"geometry": {"type": "Point", "coordinates": [50.54196932315336, 26.04205134770294]}, "type": "Feature", "id": "24", "properties": {"name": "Bahrain"}}, {"geometry": {"type": "Point", "coordinates": [-76.62843038016393, 24.29036702227007]}, "type": "Feature", "id": "25", "properties": {"name": "Bahamas"}}, {"geometry": {"type": "Point", "coordinates": [17.76876733230196, 44.17450124722111]}, "type": "Feature", "id": "26", "properties": {"name": "Bosnia and Herz."}}, {"geometry": {"type": "Point", "coordinates": [-62.840677788420116, 17.89880451116797]}, "type": "Feature", "id": "27", "properties": {"name": "St-Barth\u00e9lemy"}}, {"geometry": {"type": "Point", "coordinates": [28.032093070257375, 53.53131376850535]}, "type": "Feature", "id": "28", "properties": {"name": "Belarus"}}, {"geometry": {"type": "Point", "coordinates": [-88.71010485642817, 17.200275090154328]}, "type": "Feature", "id": "29", "properties": {"name": "Belize"}}, {"geometry": {"type": "Point", "coordinates": [-64.75455889816418, 32.31367802083389]}, "type": "Feature", "id": "30", "properties": {"name": "Bermuda"}}, {"geometry": {"type": "Point", "coordinates": [-64.68538645146488, -16.70814787250166]}, "type": "Feature", "id": "31", "properties": {"name": "Bolivia"}}, {"geometry": {"type": "Point", "coordinates": [-53.09783112669133, -10.78777702460519]}, "type": "Feature", "id": "32", "properties": {"name": "Brazil"}}, {"geometry": {"type": "Point", "coordinates": [-59.55979700211572, 13.181454282224827]}, "type": "Feature", "id": "33", "properties": {"name": "Barbados"}}, {"geometry": {"type": "Point", "coordinates": [114.72203035381345, 4.519689575028005]}, "type": "Feature", "id": "34", "properties": {"name": "Brunei"}}, {"geometry": {"type": "Point", "coordinates": [90.40188155254133, 27.411065885780392]}, "type": "Feature", "id": "35", "properties": {"name": "Bhutan"}}, {"geometry": {"type": "Point", "coordinates": [23.798533677293992, -22.18403213284324]}, "type": "Feature", "id": "36", "properties": {"name": "Botswana"}}, {"geometry": {"type": "Point", "coordinates": [20.468268309752055, 6.568232970478144]}, "type": "Feature", "id": "37", "properties": {"name": "Central African Rep."}}, {"geometry": {"type": "Point", "coordinates": [-98.30777028190086, 61.36206324369374]}, "type": "Feature", "id": "38", "properties": {"name": "Canada"}}, {"geometry": {"type": "Point", "coordinates": [8.208674706150353, 46.797858783616064]}, "type": "Feature", "id": "39", "properties": {"name": "Switzerland"}}, {"geometry": {"type": "Point", "coordinates": [-71.38256213177716, -37.73070989303506]}, "type": "Feature", "id": "40", "properties": {"name": "Chile"}}, {"geometry": {"type": "Point", "coordinates": [103.81907314582412, 36.56176537925266]}, "type": "Feature", "id": "41", "properties": {"name": "China"}}, {"geometry": {"type": "Point", "coordinates": [-5.569215699797346, 7.628426202354209]}, "type": "Feature", "id": "42", "properties": {"name": "C\u00f4te d'Ivoire"}}, {"geometry": {"type": "Point", "coordinates": [12.73964155753733, 5.691098489858644]}, "type": "Feature", "id": "43", "properties": {"name": "Cameroon"}}, {"geometry": {"type": "Point", "coordinates": [23.643961066039434, -2.8774628896997387]}, "type": "Feature", "id": "44", "properties": {"name": "Dem. Rep. Congo"}}, {"geometry": {"type": "Point", "coordinates": [15.21965761951592, -0.8378746311836595]}, "type": "Feature", "id": "45", "properties": {"name": "Congo"}}, {"geometry": {"type": "Point", "coordinates": [-159.78724218541575, -21.2192728815443]}, "type": "Feature", "id": "46", "properties": {"name": "Cook Is."}}, {"geometry": {"type": "Point", "coordinates": [-73.08114582409281, 3.9138343072503274]}, "type": "Feature", "id": "47", "properties": {"name": "Colombia"}}, {"geometry": {"type": "Point", "coordinates": [43.68253968476777, -11.877834435528062]}, "type": "Feature", "id": "48", "properties": {"name": "Comoros"}}, {"geometry": {"type": "Point", "coordinates": [-23.959888202551763, 15.955233242141476]}, "type": "Feature", "id": "49", "properties": {"name": "Cabo Verde"}}, {"geometry": {"type": "Point", "coordinates": [-84.1920876775362, 9.976344638396982]}, "type": "Feature", "id": "50", "properties": {"name": "Costa Rica"}}, {"geometry": {"type": "Point", "coordinates": [-79.01605384446293, 21.622895279311308]}, "type": "Feature", "id": "51", "properties": {"name": "Cuba"}}, {"geometry": {"type": "Point", "coordinates": [-68.9711936879736, 12.195516754557731]}, "type": "Feature", "id": "52", "properties": {"name": "Cura\u00e7ao"}}, {"geometry": {"type": "Point", "coordinates": [-80.91213321470451, 19.428964972235036]}, "type": "Feature", "id": "53", "properties": {"name": "Cayman Is."}}, {"geometry": {"type": "Point", "coordinates": [33.568481297355774, 35.26277485618731]}, "type": "Feature", "id": "54", "properties": {"name": "N. Cyprus"}}, {"geometry": {"type": "Point", "coordinates": [33.00600219571046, 34.91667211201095]}, "type": "Feature", "id": "55", "properties": {"name": "Cyprus"}}, {"geometry": {"type": "Point", "coordinates": [15.312401628099401, 49.7334123294873]}, "type": "Feature", "id": "56", "properties": {"name": "Czechia"}}, {"geometry": {"type": "Point", "coordinates": [10.385780507966935, 51.10698180746329]}, "type": "Feature", "id": "57", "properties": {"name": "Germany"}}, {"geometry": {"type": "Point", "coordinates": [42.560675402639276, 11.748718055878161]}, "type": "Feature", "id": "58", "properties": {"name": "Djibouti"}}, {"geometry": {"type": "Point", "coordinates": [-61.3577259987166, 15.439470202865927]}, "type": "Feature", "id": "59", "properties": {"name": "Dominica"}}, {"geometry": {"type": "Point", "coordinates": [10.028009919086013, 55.98125295929094]}, "type": "Feature", "id": "60", "properties": {"name": "Denmark"}}, {"geometry": {"type": "Point", "coordinates": [-70.5056889612129, 18.894330823339548]}, "type": "Feature", "id": "61", "properties": {"name": "Dominican Rep."}}, {"geometry": {"type": "Point", "coordinates": [2.6173230091978255, 28.158938494487607]}, "type": "Feature", "id": "62", "properties": {"name": "Algeria"}}, {"geometry": {"type": "Point", "coordinates": [-78.75201922498927, -1.4238161248773777]}, "type": "Feature", "id": "63", "properties": {"name": "Ecuador"}}, {"geometry": {"type": "Point", "coordinates": [29.86190099083467, 26.49593310640025]}, "type": "Feature", "id": "64", "properties": {"name": "Egypt"}}, {"geometry": {"type": "Point", "coordinates": [38.84617011245909, 15.361866184011722]}, "type": "Feature", "id": "65", "properties": {"name": "Eritrea"}}, {"geometry": {"type": "Point", "coordinates": [-3.647550473229101, 40.244486981148476]}, "type": "Feature", "id": "66", "properties": {"name": "Spain"}}, {"geometry": {"type": "Point", "coordinates": [25.542485365633016, 58.67192971732104]}, "type": "Feature", "id": "67", "properties": {"name": "Estonia"}}, {"geometry": {"type": "Point", "coordinates": [39.60080097632241, 8.622786793100232]}, "type": "Feature", "id": "68", "properties": {"name": "Ethiopia"}}, {"geometry": {"type": "Point", "coordinates": [26.274665604161964, 64.4988460348704]}, "type": "Feature", "id": "69", "properties": {"name": "Finland"}}, {"geometry": {"type": "Point", "coordinates": [165.4519543176623, -17.42858031745165]}, "type": "Feature", "id": "70", "properties": {"name": "Fiji"}}, {"geometry": {"type": "Point", "coordinates": [-59.35238955995252, -51.74483954408809]}, "type": "Feature", "id": "71", "properties": {"name": "Falkland Is."}}, {"geometry": {"type": "Point", "coordinates": [-2.761729445188558, 42.17344011072425]}, "type": "Feature", "id": "72", "properties": {"name": "France"}}, {"geometry": {"type": "Point", "coordinates": [-6.880954234256285, 62.05385403214596]}, "type": "Feature", "id": "73", "properties": {"name": "Faeroe Is."}}, {"geometry": {"type": "Point", "coordinates": [153.23943792202513, 7.452468136589948]}, "type": "Feature", "id": "74", "properties": {"name": "Micronesia"}}, {"geometry": {"type": "Point", "coordinates": [11.7886286968418, -0.586600249550736]}, "type": "Feature", "id": "75", "properties": {"name": "Gabon"}}, {"geometry": {"type": "Point", "coordinates": [-2.865631640838123, 54.12387155772937]}, "type": "Feature", "id": "76", "properties": {"name": "United Kingdom"}}, {"geometry": {"type": "Point", "coordinates": [43.507802520006535, 42.16855755367937]}, "type": "Feature", "id": "77", "properties": {"name": "Georgia"}}, {"geometry": {"type": "Point", "coordinates": [-2.5723906355500654, 49.468097612772205]}, "type": "Feature", "id": "78", "properties": {"name": "Guernsey"}}, {"geometry": {"type": "Point", "coordinates": [-1.2167656580729067, 7.9534564354140755]}, "type": "Feature", "id": "79", "properties": {"name": "Ghana"}}, {"geometry": {"type": "Point", "coordinates": [-10.940666116051275, 10.436215933131052]}, "type": "Feature", "id": "80", "properties": {"name": "Guinea"}}, {"geometry": {"type": "Point", "coordinates": [-15.396012946305525, 13.449652435193691]}, "type": "Feature", "id": "81", "properties": {"name": "Gambia"}}, {"geometry": {"type": "Point", "coordinates": [-14.94972444591717, 12.047449481485904]}, "type": "Feature", "id": "82", "properties": {"name": "Guinea-Bissau"}}, {"geometry": {"type": "Point", "coordinates": [10.341379238850376, 1.7055513546427932]}, "type": "Feature", "id": "83", "properties": {"name": "Eq. Guinea"}}, {"geometry": {"type": "Point", "coordinates": [22.955557936914172, 39.07469623069562]}, "type": "Feature", "id": "84", "properties": {"name": "Greece"}}, {"geometry": {"type": "Point", "coordinates": [-61.6822018889197, 12.11725043947459]}, "type": "Feature", "id": "85", "properties": {"name": "Grenada"}}, {"geometry": {"type": "Point", "coordinates": [-41.34191126999353, 74.71051288642221]}, "type": "Feature", "id": "86", "properties": {"name": "Greenland"}}, {"geometry": {"type": "Point", "coordinates": [-90.36482008577346, 15.694036634963565]}, "type": "Feature", "id": "87", "properties": {"name": "Guatemala"}}, {"geometry": {"type": "Point", "coordinates": [144.76791021955557, 13.44165625703416]}, "type": "Feature", "id": "88", "properties": {"name": "Guam"}}, {"geometry": {"type": "Point", "coordinates": [-58.98202458930548, 4.793780340123185]}, "type": "Feature", "id": "89", "properties": {"name": "Guyana"}}, {"geometry": {"type": "Point", "coordinates": [114.11380454176452, 22.398277372298413]}, "type": "Feature", "id": "90", "properties": {"name": "Hong Kong"}}, {"geometry": {"type": "Point", "coordinates": [73.52051710044934, -53.08724656179311]}, "type": "Feature", "id": "91", "properties": {"name": "Heard I. and McDonald Is."}}, {"geometry": {"type": "Point", "coordinates": [-86.61516609633495, 14.82688165191778]}, "type": "Feature", "id": "92", "properties": {"name": "Honduras"}}, {"geometry": {"type": "Point", "coordinates": [16.40412899395159, 45.08047630570642]}, "type": "Feature", "id": "93", "properties": {"name": "Croatia"}}, {"geometry": {"type": "Point", "coordinates": [-72.6852750898534, 18.935025634308058]}, "type": "Feature", "id": "94", "properties": {"name": "Haiti"}}, {"geometry": {"type": "Point", "coordinates": [19.395591160671408, 47.1627750614468]}, "type": "Feature", "id": "95", "properties": {"name": "Hungary"}}, {"geometry": {"type": "Point", "coordinates": [117.24011366213875, -2.2150545634596246]}, "type": "Feature", "id": "96", "properties": {"name": "Indonesia"}}, {"geometry": {"type": "Point", "coordinates": [-4.538739523255257, 54.2241891077143]}, "type": "Feature", "id": "97", "properties": {"name": "Isle of Man"}}, {"geometry": {"type": "Point", "coordinates": [79.6119760945121, 22.885781980028927]}, "type": "Feature", "id": "98", "properties": {"name": "India"}}, {"geometry": {"type": "Point", "coordinates": [104.85189795182733, -10.647851497343963]}, "type": "Feature", "id": "99", "properties": {"name": "Indian Ocean Ter."}}, {"geometry": {"type": "Point", "coordinates": [72.4454122853791, -7.3305975074921585]}, "type": "Feature", "id": "100", "properties": {"name": "Br. Indian Ocean Ter."}}, {"geometry": {"type": "Point", "coordinates": [-8.137935686668477, 53.17544870399652]}, "type": "Feature", "id": "101", "properties": {"name": "Ireland"}}, {"geometry": {"type": "Point", "coordinates": [54.27407017960944, 32.57503286207575]}, "type": "Feature", "id": "102", "properties": {"name": "Iran"}}, {"geometry": {"type": "Point", "coordinates": [43.74353148878183, 33.03970582315265]}, "type": "Feature", "id": "103", "properties": {"name": "Iraq"}}, {"geometry": {"type": "Point", "coordinates": [-18.573961670805186, 64.99575386067318]}, "type": "Feature", "id": "104", "properties": {"name": "Iceland"}}, {"geometry": {"type": "Point", "coordinates": [35.00444692771938, 31.461101011846754]}, "type": "Feature", "id": "105", "properties": {"name": "Israel"}}, {"geometry": {"type": "Point", "coordinates": [12.070012547689824, 42.79662848728708]}, "type": "Feature", "id": "106", "properties": {"name": "Italy"}}, {"geometry": {"type": "Point", "coordinates": [-77.31482593265966, 18.156948776538872]}, "type": "Feature", "id": "107", "properties": {"name": "Jamaica"}}, {"geometry": {"type": "Point", "coordinates": [-2.126899379444998, 49.218373766795764]}, "type": "Feature", "id": "108", "properties": {"name": "Jersey"}}, {"geometry": {"type": "Point", "coordinates": [36.771361040197505, 31.245790912075424]}, "type": "Feature", "id": "109", "properties": {"name": "Jordan"}}, {"geometry": {"type": "Point", "coordinates": [138.03089557691737, 37.59230135301564]}, "type": "Feature", "id": "110", "properties": {"name": "Japan"}}, {"geometry": {"type": "Point", "coordinates": [77.180118651977, 35.39236324792846]}, "type": "Feature", "id": "111", "properties": {"name": "Siachen Glacier"}}, {"geometry": {"type": "Point", "coordinates": [67.29149356872948, 48.156880666083374]}, "type": "Feature", "id": "112", "properties": {"name": "Kazakhstan"}}, {"geometry": {"type": "Point", "coordinates": [37.795939729267594, 0.599880215445473]}, "type": "Feature", "id": "113", "properties": {"name": "Kenya"}}, {"geometry": {"type": "Point", "coordinates": [74.54165513285669, 41.46221943455204]}, "type": "Feature", "id": "114", "properties": {"name": "Kyrgyzstan"}}, {"geometry": {"type": "Point", "coordinates": [104.90694324943165, 12.720047856651128]}, "type": "Feature", "id": "115", "properties": {"name": "Cambodia"}}, {"geometry": {"type": "Point", "coordinates": [-45.61110513493779, 0.8600150317650128]}, "type": "Feature", "id": "116", "properties": {"name": "Kiribati"}}, {"geometry": {"type": "Point", "coordinates": [-62.68755264958428, 17.264599504667416]}, "type": "Feature", "id": "117", "properties": {"name": "St. Kitts and Nevis"}}, {"geometry": {"type": "Point", "coordinates": [127.83916086401786, 36.38523983465205]}, "type": "Feature", "id": "118", "properties": {"name": "South Korea"}}, {"geometry": {"type": "Point", "coordinates": [20.872498113808685, 42.57078706675286]}, "type": "Feature", "id": "119", "properties": {"name": "Kosovo"}}, {"geometry": {"type": "Point", "coordinates": [47.5870045888837, 29.334312615675387]}, "type": "Feature", "id": "120", "properties": {"name": "Kuwait"}}, {"geometry": {"type": "Point", "coordinates": [103.73772412042685, 18.50217433160286]}, "type": "Feature", "id": "121", "properties": {"name": "Laos"}}, {"geometry": {"type": "Point", "coordinates": [35.880160714965044, 33.92306630567856]}, "type": "Feature", "id": "122", "properties": {"name": "Lebanon"}}, {"geometry": {"type": "Point", "coordinates": [-9.322075726897609, 6.452784916574193]}, "type": "Feature", "id": "123", "properties": {"name": "Liberia"}}, {"geometry": {"type": "Point", "coordinates": [18.008661687167116, 27.030944949138437]}, "type": "Feature", "id": "124", "properties": {"name": "Libya"}}, {"geometry": {"type": "Point", "coordinates": [-60.96969922527704, 13.894794814534256]}, "type": "Feature", "id": "125", "properties": {"name": "Saint Lucia"}}, {"geometry": {"type": "Point", "coordinates": [9.535743117786925, 47.13665835447367]}, "type": "Feature", "id": "126", "properties": {"name": "Liechtenstein"}}, {"geometry": {"type": "Point", "coordinates": [80.70108237823946, 7.612665092241444]}, "type": "Feature", "id": "127", "properties": {"name": "Sri Lanka"}}, {"geometry": {"type": "Point", "coordinates": [28.227231309828845, -29.58003188326002]}, "type": "Feature", "id": "128", "properties": {"name": "Lesotho"}}, {"geometry": {"type": "Point", "coordinates": [23.887193554832404, 55.326109844525554]}, "type": "Feature", "id": "129", "properties": {"name": "Lithuania"}}, {"geometry": {"type": "Point", "coordinates": [6.071822010663914, 49.76725360681419]}, "type": "Feature", "id": "130", "properties": {"name": "Luxembourg"}}, {"geometry": {"type": "Point", "coordinates": [24.912359833154888, 56.850851626828266]}, "type": "Feature", "id": "131", "properties": {"name": "Latvia"}}, {"geometry": {"type": "Point", "coordinates": [113.50932116196456, 22.223116883544666]}, "type": "Feature", "id": "132", "properties": {"name": "Macao"}}, {"geometry": {"type": "Point", "coordinates": [-63.05972851444494, 18.088886109462262]}, "type": "Feature", "id": "133", "properties": {"name": "St-Martin"}}, {"geometry": {"type": "Point", "coordinates": [-8.456157947977445, 29.83762954687923]}, "type": "Feature", "id": "134", "properties": {"name": "Morocco"}}, {"geometry": {"type": "Point", "coordinates": [7.406276768562419, 43.75274626720092]}, "type": "Feature", "id": "135", "properties": {"name": "Monaco"}}, {"geometry": {"type": "Point", "coordinates": [28.456733724130725, 47.1949880441786]}, "type": "Feature", "id": "136", "properties": {"name": "Moldova"}}, {"geometry": {"type": "Point", "coordinates": [46.70473674282834, -19.371895867650558]}, "type": "Feature", "id": "137", "properties": {"name": "Madagascar"}}, {"geometry": {"type": "Point", "coordinates": [73.4571300419496, 3.728709199880595]}, "type": "Feature", "id": "138", "properties": {"name": "Maldives"}}, {"geometry": {"type": "Point", "coordinates": [-102.52345169188919, 23.947537240640386]}, "type": "Feature", "id": "139", "properties": {"name": "Mexico"}}, {"geometry": {"type": "Point", "coordinates": [170.33976122358456, 7.003763583153372]}, "type": "Feature", "id": "140", "properties": {"name": "Marshall Is."}}, {"geometry": {"type": "Point", "coordinates": [21.68211346070556, 41.595308933620075]}, "type": "Feature", "id": "141", "properties": {"name": "Macedonia"}}, {"geometry": {"type": "Point", "coordinates": [-3.5426906485093714, 17.34581581348363]}, "type": "Feature", "id": "142", "properties": {"name": "Mali"}}, {"geometry": {"type": "Point", "coordinates": [14.4052331642552, 35.921496322054416]}, "type": "Feature", "id": "143", "properties": {"name": "Malta"}}, {"geometry": {"type": "Point", "coordinates": [96.48843321041795, 21.185665992690286]}, "type": "Feature", "id": "144", "properties": {"name": "Myanmar"}}, {"geometry": {"type": "Point", "coordinates": [19.238839392474098, 42.7889025929079]}, "type": "Feature", "id": "145", "properties": {"name": "Montenegro"}}, {"geometry": {"type": "Point", "coordinates": [103.05299764855972, 46.82681543939441]}, "type": "Feature", "id": "146", "properties": {"name": "Mongolia"}}, {"geometry": {"type": "Point", "coordinates": [145.61969651296846, 15.829275627693217]}, "type": "Feature", "id": "147", "properties": {"name": "N. Mariana Is."}}, {"geometry": {"type": "Point", "coordinates": [35.5336754258895, -17.2738164259247]}, "type": "Feature", "id": "148", "properties": {"name": "Mozambique"}}, {"geometry": {"type": "Point", "coordinates": [-10.347798145489133, 20.25736705596922]}, "type": "Feature", "id": "149", "properties": {"name": "Mauritania"}}, {"geometry": {"type": "Point", "coordinates": [-62.185185456249805, 16.739414055259036]}, "type": "Feature", "id": "150", "properties": {"name": "Montserrat"}}, {"geometry": {"type": "Point", "coordinates": [57.57120550607982, -20.277687043323176]}, "type": "Feature", "id": "151", "properties": {"name": "Mauritius"}}, {"geometry": {"type": "Point", "coordinates": [34.28935598705401, -13.218080880593254]}, "type": "Feature", "id": "152", "properties": {"name": "Malawi"}}, {"geometry": {"type": "Point", "coordinates": [109.6976228426472, 3.7898684557131026]}, "type": "Feature", "id": "153", "properties": {"name": "Malaysia"}}, {"geometry": {"type": "Point", "coordinates": [17.20963566702181, -22.130325684215098]}, "type": "Feature", "id": "154", "properties": {"name": "Namibia"}}, {"geometry": {"type": "Point", "coordinates": [165.68492373537754, -21.29991805801781]}, "type": "Feature", "id": "155", "properties": {"name": "New Caledonia"}}, {"geometry": {"type": "Point", "coordinates": [9.385458815387265, 17.419124929575627]}, "type": "Feature", "id": "156", "properties": {"name": "Niger"}}, {"geometry": {"type": "Point", "coordinates": [167.9492167821313, -29.051460904383312]}, "type": "Feature", "id": "157", "properties": {"name": "Norfolk Island"}}, {"geometry": {"type": "Point", "coordinates": [8.089438947705732, 9.594114522326588]}, "type": "Feature", "id": "158", "properties": {"name": "Nigeria"}}, {"geometry": {"type": "Point", "coordinates": [-85.03052969505862, 12.847094289647222]}, "type": "Feature", "id": "159", "properties": {"name": "Nicaragua"}}, {"geometry": {"type": "Point", "coordinates": [-169.86994681861742, -19.049457081252903]}, "type": "Feature", "id": "160", "properties": {"name": "Niue"}}, {"geometry": {"type": "Point", "coordinates": [5.281447930072146, 52.1007899002464]}, "type": "Feature", "id": "161", "properties": {"name": "Netherlands"}}, {"geometry": {"type": "Point", "coordinates": [15.348346562226261, 68.75015572054926]}, "type": "Feature", "id": "162", "properties": {"name": "Norway"}}, {"geometry": {"type": "Point", "coordinates": [83.91582640015596, 28.248913649588026]}, "type": "Feature", "id": "163", "properties": {"name": "Nepal"}}, {"geometry": {"type": "Point", "coordinates": [166.93256823412688, -0.5191263895222604]}, "type": "Feature", "id": "164", "properties": {"name": "Nauru"}}, {"geometry": {"type": "Point", "coordinates": [171.48492346599525, -41.811135568952274]}, "type": "Feature", "id": "165", "properties": {"name": "New Zealand"}}, {"geometry": {"type": "Point", "coordinates": [56.091661548270565, 20.60515332570353]}, "type": "Feature", "id": "166", "properties": {"name": "Oman"}}, {"geometry": {"type": "Point", "coordinates": [69.33957937478083, 29.94975150313077]}, "type": "Feature", "id": "167", "properties": {"name": "Pakistan"}}, {"geometry": {"type": "Point", "coordinates": [-80.11915156124739, 8.517507974911194]}, "type": "Feature", "id": "168", "properties": {"name": "Panama"}}, {"geometry": {"type": "Point", "coordinates": [-128.31704202421278, -24.365005346037375]}, "type": "Feature", "id": "169", "properties": {"name": "Pitcairn Is."}}, {"geometry": {"type": "Point", "coordinates": [-74.38242685095807, -9.152803813291415]}, "type": "Feature", "id": "170", "properties": {"name": "Peru"}}, {"geometry": {"type": "Point", "coordinates": [122.88393252927034, 11.775367780874143]}, "type": "Feature", "id": "171", "properties": {"name": "Philippines"}}, {"geometry": {"type": "Point", "coordinates": [134.4080796552305, 7.2874278360273355]}, "type": "Feature", "id": "172", "properties": {"name": "Palau"}}, {"geometry": {"type": "Point", "coordinates": [145.20744791334232, -6.464166807545924]}, "type": "Feature", "id": "173", "properties": {"name": "Papua New Guinea"}}, {"geometry": {"type": "Point", "coordinates": [19.390128349323035, 52.127595644173674]}, "type": "Feature", "id": "174", "properties": {"name": "Poland"}}, {"geometry": {"type": "Point", "coordinates": [-66.47307604350212, 18.228130546109536]}, "type": "Feature", "id": "175", "properties": {"name": "Puerto Rico"}}, {"geometry": {"type": "Point", "coordinates": [127.19247973194385, 40.15350310927977]}, "type": "Feature", "id": "176", "properties": {"name": "North Korea"}}, {"geometry": {"type": "Point", "coordinates": [-8.501043612682903, 39.595506714497844]}, "type": "Feature", "id": "177", "properties": {"name": "Portugal"}}, {"geometry": {"type": "Point", "coordinates": [-58.400137031999016, -23.228239132027085]}, "type": "Feature", "id": "178", "properties": {"name": "Paraguay"}}, {"geometry": {"type": "Point", "coordinates": [35.19628705488856, 31.916138926399952]}, "type": "Feature", "id": "179", "properties": {"name": "Palestine"}}, {"geometry": {"type": "Point", "coordinates": [-144.90494386934603, -14.722274089905572]}, "type": "Feature", "id": "180", "properties": {"name": "Fr. Polynesia"}}, {"geometry": {"type": "Point", "coordinates": [51.18479632116143, 25.306011876266858]}, "type": "Feature", "id": "181", "properties": {"name": "Qatar"}}, {"geometry": {"type": "Point", "coordinates": [24.97293039328801, 45.85243127424077]}, "type": "Feature", "id": "182", "properties": {"name": "Romania"}}, {"geometry": {"type": "Point", "coordinates": [96.6205101247048, 61.96285909335554]}, "type": "Feature", "id": "183", "properties": {"name": "Russia"}}, {"geometry": {"type": "Point", "coordinates": [29.919885152416292, -1.9903383169251834]}, "type": "Feature", "id": "184", "properties": {"name": "Rwanda"}}, {"geometry": {"type": "Point", "coordinates": [-12.219827548514212, 24.229567386505515]}, "type": "Feature", "id": "185", "properties": {"name": "W. Sahara"}}, {"geometry": {"type": "Point", "coordinates": [44.53686271140432, 24.122458407282867]}, "type": "Feature", "id": "186", "properties": {"name": "Saudi Arabia"}}, {"geometry": {"type": "Point", "coordinates": [29.940468119895733, 15.990356685582698]}, "type": "Feature", "id": "187", "properties": {"name": "Sudan"}}, {"geometry": {"type": "Point", "coordinates": [30.24790001857724, 7.3087794492234295]}, "type": "Feature", "id": "188", "properties": {"name": "S. Sudan"}}, {"geometry": {"type": "Point", "coordinates": [-14.47349239728232, 14.36624173128274]}, "type": "Feature", "id": "189", "properties": {"name": "Senegal"}}, {"geometry": {"type": "Point", "coordinates": [103.81725592004348, 1.3587608707500953]}, "type": "Feature", "id": "190", "properties": {"name": "Singapore"}}, {"geometry": {"type": "Point", "coordinates": [-36.43318388225973, -54.464882480150656]}, "type": "Feature", "id": "191", "properties": {"name": "S. Geo. and the Is."}}, {"geometry": {"type": "Point", "coordinates": [-9.54779415869911, -12.403559507754869]}, "type": "Feature", "id": "192", "properties": {"name": "Saint Helena"}}, {"geometry": {"type": "Point", "coordinates": [159.6328766783695, -8.92178021692275]}, "type": "Feature", "id": "193", "properties": {"name": "Solomon Is."}}, {"geometry": {"type": "Point", "coordinates": [-11.792712466789755, 8.563295930375881]}, "type": "Feature", "id": "194", "properties": {"name": "Sierra Leone"}}, {"geometry": {"type": "Point", "coordinates": [-88.87164469062122, 13.73943743827704]}, "type": "Feature", "id": "195", "properties": {"name": "El Salvador"}}, {"geometry": {"type": "Point", "coordinates": [12.45922333583588, 43.94186746766136]}, "type": "Feature", "id": "196", "properties": {"name": "San Marino"}}, {"geometry": {"type": "Point", "coordinates": [46.25198395099159, 9.733454963108652]}, "type": "Feature", "id": "197", "properties": {"name": "Somaliland"}}, {"geometry": {"type": "Point", "coordinates": [45.70714486994364, 4.750628760548464]}, "type": "Feature", "id": "198", "properties": {"name": "Somalia"}}, {"geometry": {"type": "Point", "coordinates": [-56.30319778821447, 46.91918789286145]}, "type": "Feature", "id": "199", "properties": {"name": "St. Pierre and Miquelon"}}, {"geometry": {"type": "Point", "coordinates": [20.78958333627328, 44.22150319931998]}, "type": "Feature", "id": "200", "properties": {"name": "Serbia"}}, {"geometry": {"type": "Point", "coordinates": [6.724296579272582, 0.44391444930855595]}, "type": "Feature", "id": "201", "properties": {"name": "S\u00e3o Tom\u00e9 and Principe"}}, {"geometry": {"type": "Point", "coordinates": [-55.91234569505449, 4.130554129901062]}, "type": "Feature", "id": "202", "properties": {"name": "Suriname"}}, {"geometry": {"type": "Point", "coordinates": [19.479052181064112, 48.70547528132307]}, "type": "Feature", "id": "203", "properties": {"name": "Slovakia"}}, {"geometry": {"type": "Point", "coordinates": [14.80444237755617, 46.11554772069851]}, "type": "Feature", "id": "204", "properties": {"name": "Slovenia"}}, {"geometry": {"type": "Point", "coordinates": [16.74558048694415, 62.77966519310592]}, "type": "Feature", "id": "205", "properties": {"name": "Sweden"}}, {"geometry": {"type": "Point", "coordinates": [31.481936901115684, -26.558430450174324]}, "type": "Feature", "id": "206", "properties": {"name": "Swaziland"}}, {"geometry": {"type": "Point", "coordinates": [-63.057133626978896, 18.050817279332893]}, "type": "Feature", "id": "207", "properties": {"name": "Sint Maarten"}}, {"geometry": {"type": "Point", "coordinates": [55.47603279124375, -4.660990935223645]}, "type": "Feature", "id": "208", "properties": {"name": "Seychelles"}}, {"geometry": {"type": "Point", "coordinates": [38.5078820425316, 35.02547389396985]}, "type": "Feature", "id": "209", "properties": {"name": "Syria"}}, {"geometry": {"type": "Point", "coordinates": [-71.97387881442742, 21.830475717099507]}, "type": "Feature", "id": "210", "properties": {"name": "Turks and Caicos Is."}}, {"geometry": {"type": "Point", "coordinates": [18.64492512909127, 15.333337584982463]}, "type": "Feature", "id": "211", "properties": {"name": "Chad"}}, {"geometry": {"type": "Point", "coordinates": [0.9623284497685523, 8.52531356140525]}, "type": "Feature", "id": "212", "properties": {"name": "Togo"}}, {"geometry": {"type": "Point", "coordinates": [101.00288130355882, 15.118157941833863]}, "type": "Feature", "id": "213", "properties": {"name": "Thailand"}}, {"geometry": {"type": "Point", "coordinates": [71.01362630906436, 38.530453896299655]}, "type": "Feature", "id": "214", "properties": {"name": "Tajikistan"}}, {"geometry": {"type": "Point", "coordinates": [59.37100020614539, 39.115541374194166]}, "type": "Feature", "id": "215", "properties": {"name": "Turkmenistan"}}, {"geometry": {"type": "Point", "coordinates": [125.84438982066493, -8.828891620465509]}, "type": "Feature", "id": "216", "properties": {"name": "Timor-Leste"}}, {"geometry": {"type": "Point", "coordinates": [-174.80987340978612, -20.428431742537935]}, "type": "Feature", "id": "217", "properties": {"name": "Tonga"}}, {"geometry": {"type": "Point", "coordinates": [-61.26567923346816, 10.457334081006888]}, "type": "Feature", "id": "218", "properties": {"name": "Trinidad and Tobago"}}, {"geometry": {"type": "Point", "coordinates": [9.552883589326427, 34.119562464907865]}, "type": "Feature", "id": "219", "properties": {"name": "Tunisia"}}, {"geometry": {"type": "Point", "coordinates": [35.16895346488074, 39.06160290125549]}, "type": "Feature", "id": "220", "properties": {"name": "Turkey"}}, {"geometry": {"type": "Point", "coordinates": [120.95427281363112, 23.753992794953852]}, "type": "Feature", "id": "221", "properties": {"name": "Taiwan"}}, {"geometry": {"type": "Point", "coordinates": [34.81309980932456, -6.275654083316636]}, "type": "Feature", "id": "222", "properties": {"name": "Tanzania"}}, {"geometry": {"type": "Point", "coordinates": [32.36907971370349, 1.2746929873087103]}, "type": "Feature", "id": "223", "properties": {"name": "Uganda"}}, {"geometry": {"type": "Point", "coordinates": [31.25291106459201, 49.15867312041152]}, "type": "Feature", "id": "224", "properties": {"name": "Ukraine"}}, {"geometry": {"type": "Point", "coordinates": [-56.018070531450725, -32.79951534437521]}, "type": "Feature", "id": "225", "properties": {"name": "Uruguay"}}, {"geometry": {"type": "Point", "coordinates": [-112.46167369956669, 45.67954720255085]}, "type": "Feature", "id": "226", "properties": {"name": "United States of America"}}, {"geometry": {"type": "Point", "coordinates": [63.14001528047123, 41.755542252652376]}, "type": "Feature", "id": "227", "properties": {"name": "Uzbekistan"}}, {"geometry": {"type": "Point", "coordinates": [12.433871766103506, 41.90174985292015]}, "type": "Feature", "id": "228", "properties": {"name": "Vatican"}}, {"geometry": {"type": "Point", "coordinates": [-61.20129694969366, 13.224722689966024]}, "type": "Feature", "id": "229", "properties": {"name": "St. Vin. and Gren."}}, {"geometry": {"type": "Point", "coordinates": [-66.1818412311454, 7.124224212732793]}, "type": "Feature", "id": "230", "properties": {"name": "Venezuela"}}, {"geometry": {"type": "Point", "coordinates": [-64.47146992204706, 18.525857545070636]}, "type": "Feature", "id": "231", "properties": {"name": "British Virgin Is."}}, {"geometry": {"type": "Point", "coordinates": [-64.80301537523916, 17.955006239372242]}, "type": "Feature", "id": "232", "properties": {"name": "U.S. Virgin Is."}}, {"geometry": {"type": "Point", "coordinates": [106.29914697764953, 16.646016701943385]}, "type": "Feature", "id": "233", "properties": {"name": "Vietnam"}}, {"geometry": {"type": "Point", "coordinates": [167.68644635705095, -16.226409088434327]}, "type": "Feature", "id": "234", "properties": {"name": "Vanuatu"}}, {"geometry": {"type": "Point", "coordinates": [-177.34834825140535, -13.88737039033714]}, "type": "Feature", "id": "235", "properties": {"name": "Wallis and Futuna Is."}}, {"geometry": {"type": "Point", "coordinates": [-172.16485064026728, -13.753243463807346]}, "type": "Feature", "id": "236", "properties": {"name": "Samoa"}}, {"geometry": {"type": "Point", "coordinates": [47.58676188773277, 15.909280050454147]}, "type": "Feature", "id": "237", "properties": {"name": "Yemen"}}, {"geometry": {"type": "Point", "coordinates": [25.083900925067358, -29.000340953423507]}, "type": "Feature", "id": "238", "properties": {"name": "South Africa"}}, {"geometry": {"type": "Point", "coordinates": [27.774759463693194, -13.45824151864687]}, "type": "Feature", "id": "239", "properties": {"name": "Zambia"}}, {"geometry": {"type": "Point", "coordinates": [29.85144120192185, -19.004204188216782]}, "type": "Feature", "id": "240", "properties": {"name": "Zimbabwe"}}]}