{"type": "FeatureCollection", "features": [{"geometry": {"type": "Point", "coordinates": [-69.9826771125094, 12.520880383840192]}, "type": "Feature", "id": "0", "properties": {"name": "Aruba"}}, {"geometry": {"type": "Point", "coordinates": [66.00473365578554, 33.83523072784668]}, "type": "Feature", "id": "1", "properties": {"name": "Afghanistan"}}, {"geometry": {"type": "Point", "coordinates": [17.537367681548865, -12.293360543793685]}, "type": "Feature", "id": "2", "properties": {"name": "Angola"}}, {"geometry": {"type": "Point", "coordinates": [-63.06498926535687, 18.223959502282636]}, "type": "Feature", "id": "3", "properties": {"name": "Anguilla"}}, {"geometry": {"type": "Point", "coordinates": [20.04983396108883, 41.14244989474517]}, "type": "Feature", "id": "4", "properties": {"name": "Albania"}}, {"geometry": {"type": "Point", "coordinates": [19.95328767603767, 60.2148868755776]}, "type": "Feature", "id": "5", "properties": {"name": "Aland"}}, {"geometry": {"type": "Point", "coordinates": [1.5605437791792292, 42.54229102187176]}, "type": "Feature", "id": "6", "properties": {"name": "Andorra"}}, {"geometry": {"type": "Point", "coordinates": [54.300167101563936, 23.905281878496574]}, "type": "Feature", "id": "7", "properties": {"name": "United Arab Emirates"}}, {"geometry": {"type": "Point", "coordinates": [-65.17980692500295, -35.38134879526277]}, "type": "Feature", "id": "8", "properties": {"name": "Argentina"}}, {"geometry": {"type": "Point", "coordinates": [44.929932756355655, 40.289525691890105]}, "type": "Feature", "id": "9", "properties": {"name": "Armenia"}}, {"geometry": {"type": "Point", "coordinates": [-170.71802574559652, -14.30445997081536]}, "type": "Feature", "id": "10", "properties": {"name": "American Samoa"}}, {"geometry": {"type": "Point", "coordinates": [19.92108951219516, -80.50857913109417]}, "type": "Feature", "id": "11", "properties": {"name": "Antarctica"}}, {"geometry": {"type": "Point", "coordinates": [123.583837890625, -12.429931640625009]}, "type": "Feature", "id": "12", "properties": {"name": "Ashmore and Cartier Is."}}, {"geometry": {"type": "Point", "coordinates": [69.2266675844793, -49.24895484944395]}, "type": "Feature", "id": "13", "properties": {"name": "Fr. S. Antarctic Lands"}}, {"geometry": {"type": "Point", "coordinates": [-61.79469342704543, 17.277499598624924]}, "type": "Feature", "id": "14", "properties": {"name": "Antigua and Barb."}}, {"geometry": {"type": "Point", "coordinates": [134.49100008213398, -25.732887041730585]}, "type": "Feature", "id": "15", "properties": {"name": "Australia"}}, {"geometry": {"type": "Point", "coordinates": [14.126476099637841, 47.585494392035955]}, "type": "Feature", "id": "16", "properties": {"name": "Austria"}}, {"geometry": {"type": "Point", "coordinates": [47.54599878915454, 40.288272347104666]}, "type": "Feature", "id": "17", "properties": {"name": "Azerbaijan"}}, {"geometry": {"type": "Point", "coordinates": [29.875121564464433, -3.3593966574700707]}, "type": "Feature", "id": "18", "properties": {"name": "Burundi"}}, {"geometry": {"type": "Point", "coordinates": [4.640651139183845, 50.63981575561384]}, "type": "Feature", "id": "19", "properties": {"name": "Belgium"}}, {"geometry": {"type": "Point", "coordinates": [2.3278525444876643, 9.641759702254511]}, "type": "Feature", "id": "20", "properties": {"name": "Benin"}}, {"geometry": {"type": "Point", "coordinates": [-1.7545660091443662, 12.269538457425368]}, "type": "Feature", "id": "21", "properties": {"name": "Burkina Faso"}}, {"geometry": {"type": "Point", "coordinates": [90.23812743228264, 23.867311580033647]}, "type": "Feature", "id": "22", "properties": {"name": "Bangladesh"}}, {"geometry": {"type": "Point", "coordinates": [25.215529086323315, 42.768903179715764]}, "type": "Feature", "id": "23", "properties": {"name": "Bulgaria"}}, {"geometry": {"type": "Point", "coordinates": [50.54196932315336, 26.04205134770294]}, "type": "Feature", "id": "24", "properties": {"name": "Bahrain"}}, {"geometry": {"type": "Point", "coordinates": [-76.62843038016389, 24.290367022270022]}, "type": "Feature", "id": "25", "properties": {"name": "Bahamas"}}, {"geometry": {"type": "Point", "coordinates": [17.768767332301948, 44.17450124722108]}, "type": "Feature", "id": "26", "properties": {"name": "Bosnia and Herz."}}, {"geometry": {"type": "Point", "coordinates": [-62.840677788420116, 17.89880451116797]}, "type": "Feature", "id": "27", "properties": {"name": "St-Barth\u00e9lemy"}}, {"geometry": {"type": "Point", "coordinates": [28.03209307025736, 53.53131376850524]}, "type": "Feature", "id": "28", "properties": {"name": "Belarus"}}, {"geometry": {"type": "Point", "coordinates": [-88.71010485642817, 17.20027509015435]}, "type": "Feature", "id": "29", "properties": {"name": "Belize"}}, {"geometry": {"type": "Point", "coordinates": [-64.75455889816418, 32.31367802083389]}, "type": "Feature", "id": "30", "properties": {"name": "Bermuda"}}, {"geometry": {"type": "Point", "coordinates": [-64.68538645146486, -16.70814787250165]}, "type": "Feature", "id": "31", "properties": {"name": "Bolivia"}}, {"geometry": {"type": "Point", "coordinates": [-53.09783112669137, -10.787777024605191]}, "type": "Feature", "id": "32", "properties": {"name": "Brazil"}}, {"geometry": {"type": "Point", "coordinates": [-59.55979700211572, 13.181454282224827]}, "type": "Feature", "id": "33", "properties": {"name": "Barbados"}}, {"geometry": {"type": "Point", "coordinates": [114.72203035381345, 4.519689575027987]}, "type": "Feature", "id": "34", "properties": {"name": "Brunei"}}, {"geometry": {"type": "Point", "coordinates": [90.40188155254138, 27.4110658857804]}, "type": "Feature", "id": "35", "properties": {"name": "Bhutan"}}, {"geometry": {"type": "Point", "coordinates": [23.798533677293992, -22.184032132843235]}, "type": "Feature", "id": "36", "properties": {"name": "Botswana"}}, {"geometry": {"type": "Point", "coordinates": [20.468268309752055, 6.568232970478144]}, "type": "Feature", "id": "37", "properties": {"name": "Central African Rep."}}, {"geometry": {"type": "Point", "coordinates": [-98.30777028190109, 61.362063243693854]}, "type": "Feature", "id": "38", "properties": {"name": "Canada"}}, {"geometry": {"type": "Point", "coordinates": [8.20867470615036, 46.79785878361605]}, "type": "Feature", "id": "39", "properties": {"name": "Switzerland"}}, {"geometry": {"type": "Point", "coordinates": [-71.38256213177709, -37.7307098930351]}, "type": "Feature", "id": "40", "properties": {"name": "Chile"}}, {"geometry": {"type": "Point", "coordinates": [103.8190734904241, 36.56176545589636]}, "type": "Feature", "id": "41", "properties": {"name": "China"}}, {"geometry": {"type": "Point", "coordinates": [-5.569215699797319, 7.6284262023542]}, "type": "Feature", "id": "42", "properties": {"name": "C\u00f4te d'Ivoire"}}, {"geometry": {"type": "Point", "coordinates": [12.739641557537325, 5.691098489858637]}, "type": "Feature", "id": "43", "properties": {"name": "Cameroon"}}, {"geometry": {"type": "Point", "coordinates": [23.643961066039424, -2.8774628896997383]}, "type": "Feature", "id": "44", "properties": {"name": "Dem. Rep. Congo"}}, {"geometry": {"type": "Point", "coordinates": [15.2196576195159, -0.8378746311836588]}, "type": "Feature", "id": "45", "properties": {"name": "Congo"}}, {"geometry": {"type": "Point", "coordinates": [-159.78724218541575, -21.2192728815443]}, "type": "Feature", "id": "46", "properties": {"name": "Cook Is."}}, {"geometry": {"type": "Point", "coordinates": [-73.0811458240927, 3.913834307250329]}, "type": "Feature", "id": "47", "properties": {"name": "Colombia"}}, {"geometry": {"type": "Point", "coordinates": [43.68253968476781, -11.877834435528031]}, "type": "Feature", "id": "48", "properties": {"name": "Comoros"}}, {"geometry": {"type": "Point", "coordinates": [-23.95988820255171, 15.955233242141476]}, "type": "Feature", "id": "49", "properties": {"name": "Cape Verde"}}, {"geometry": {"type": "Point", "coordinates": [-84.1920876775362, 9.97634463839698]}, "type": "Feature", "id": "50", "properties": {"name": "Costa Rica"}}, {"geometry": {"type": "Point", "coordinates": [-79.01605384446302, 21.622895279311333]}, "type": "Feature", "id": "51", "properties": {"name": "Cuba"}}, {"geometry": {"type": "Point", "coordinates": [-68.9711936879736, 12.195516754557731]}, "type": "Feature", "id": "52", "properties": {"name": "Cura\u00e7ao"}}, {"geometry": {"type": "Point", "coordinates": [-80.91213321470471, 19.428964972235]}, "type": "Feature", "id": "53", "properties": {"name": "Cayman Is."}}, {"geometry": {"type": "Point", "coordinates": [33.568481297355774, 35.26277485618731]}, "type": "Feature", "id": "54", "properties": {"name": "N. Cyprus"}}, {"geometry": {"type": "Point", "coordinates": [33.00600219571046, 34.91667211201095]}, "type": "Feature", "id": "55", "properties": {"name": "Cyprus"}}, {"geometry": {"type": "Point", "coordinates": [15.312401628099412, 49.73341232948734]}, "type": "Feature", "id": "56", "properties": {"name": "Czech Rep."}}, {"geometry": {"type": "Point", "coordinates": [10.385780507966965, 51.106981807463285]}, "type": "Feature", "id": "57", "properties": {"name": "Germany"}}, {"geometry": {"type": "Point", "coordinates": [42.56067540263927, 11.74871805587816]}, "type": "Feature", "id": "58", "properties": {"name": "Djibouti"}}, {"geometry": {"type": "Point", "coordinates": [-61.3577259987166, 15.439470202865927]}, "type": "Feature", "id": "59", "properties": {"name": "Dominica"}}, {"geometry": {"type": "Point", "coordinates": [10.028009919085983, 55.98125295929084]}, "type": "Feature", "id": "60", "properties": {"name": "Denmark"}}, {"geometry": {"type": "Point", "coordinates": [-70.50568896121294, 18.894330823339565]}, "type": "Feature", "id": "61", "properties": {"name": "Dominican Rep."}}, {"geometry": {"type": "Point", "coordinates": [2.617323009197829, 28.158938494487625]}, "type": "Feature", "id": "62", "properties": {"name": "Algeria"}}, {"geometry": {"type": "Point", "coordinates": [-78.75201922498927, -1.4238161248773673]}, "type": "Feature", "id": "63", "properties": {"name": "Ecuador"}}, {"geometry": {"type": "Point", "coordinates": [29.86190099083467, 26.495933106400248]}, "type": "Feature", "id": "64", "properties": {"name": "Egypt"}}, {"geometry": {"type": "Point", "coordinates": [38.84617011245906, 15.361866184011758]}, "type": "Feature", "id": "65", "properties": {"name": "Eritrea"}}, {"geometry": {"type": "Point", "coordinates": [-3.6475504732291344, 40.244486981148405]}, "type": "Feature", "id": "66", "properties": {"name": "Spain"}}, {"geometry": {"type": "Point", "coordinates": [25.54248536563301, 58.67192971732106]}, "type": "Feature", "id": "67", "properties": {"name": "Estonia"}}, {"geometry": {"type": "Point", "coordinates": [39.60080097632236, 8.622786793100236]}, "type": "Feature", "id": "68", "properties": {"name": "Ethiopia"}}, {"geometry": {"type": "Point", "coordinates": [26.274665604161925, 64.49884603487033]}, "type": "Feature", "id": "69", "properties": {"name": "Finland"}}, {"geometry": {"type": "Point", "coordinates": [165.4519543177189, -17.428580317451175]}, "type": "Feature", "id": "70", "properties": {"name": "Fiji"}}, {"geometry": {"type": "Point", "coordinates": [-59.352389559952556, -51.744839544088066]}, "type": "Feature", "id": "71", "properties": {"name": "Falkland Is."}}, {"geometry": {"type": "Point", "coordinates": [-2.7617294451899226, 42.17344011072424]}, "type": "Feature", "id": "72", "properties": {"name": "France"}}, {"geometry": {"type": "Point", "coordinates": [-6.880954234256295, 62.05385403214601]}, "type": "Feature", "id": "73", "properties": {"name": "Faeroe Is."}}, {"geometry": {"type": "Point", "coordinates": [153.2394379220263, 7.452468136589683]}, "type": "Feature", "id": "74", "properties": {"name": "Micronesia"}}, {"geometry": {"type": "Point", "coordinates": [11.78862869684182, -0.5866002495507373]}, "type": "Feature", "id": "75", "properties": {"name": "Gabon"}}, {"geometry": {"type": "Point", "coordinates": [-2.8656316408381244, 54.123871557729316]}, "type": "Feature", "id": "76", "properties": {"name": "United Kingdom"}}, {"geometry": {"type": "Point", "coordinates": [43.50780252000652, 42.16855755367934]}, "type": "Feature", "id": "77", "properties": {"name": "Georgia"}}, {"geometry": {"type": "Point", "coordinates": [-2.5723906355500654, 49.468097612772205]}, "type": "Feature", "id": "78", "properties": {"name": "Guernsey"}}, {"geometry": {"type": "Point", "coordinates": [-1.2167656580729072, 7.953456435414082]}, "type": "Feature", "id": "79", "properties": {"name": "Ghana"}}, {"geometry": {"type": "Point", "coordinates": [-10.940666116051277, 10.436215933131054]}, "type": "Feature", "id": "80", "properties": {"name": "Guinea"}}, {"geometry": {"type": "Point", "coordinates": [-15.396012946305525, 13.449652435193691]}, "type": "Feature", "id": "81", "properties": {"name": "Gambia"}}, {"geometry": {"type": "Point", "coordinates": [-14.949724445917132, 12.047449481485897]}, "type": "Feature", "id": "82", "properties": {"name": "Guinea-Bissau"}}, {"geometry": {"type": "Point", "coordinates": [10.341379238850363, 1.7055513546428118]}, "type": "Feature", "id": "83", "properties": {"name": "Eq. Guinea"}}, {"geometry": {"type": "Point", "coordinates": [22.955557936914197, 39.07469623069565]}, "type": "Feature", "id": "84", "properties": {"name": "Greece"}}, {"geometry": {"type": "Point", "coordinates": [-61.6822018889197, 12.11725043947459]}, "type": "Feature", "id": "85", "properties": {"name": "Grenada"}}, {"geometry": {"type": "Point", "coordinates": [-41.341911269993524, 74.71051288642236]}, "type": "Feature", "id": "86", "properties": {"name": "Greenland"}}, {"geometry": {"type": "Point", "coordinates": [-90.36482008577343, 15.694036634963563]}, "type": "Feature", "id": "87", "properties": {"name": "Guatemala"}}, {"geometry": {"type": "Point", "coordinates": [144.76791021955557, 13.44165625703416]}, "type": "Feature", "id": "88", "properties": {"name": "Guam"}}, {"geometry": {"type": "Point", "coordinates": [-58.982024589305446, 4.793780340123184]}, "type": "Feature", "id": "89", "properties": {"name": "Guyana"}}, {"geometry": {"type": "Point", "coordinates": [114.11380454176457, 22.398277372298434]}, "type": "Feature", "id": "90", "properties": {"name": "Hong Kong"}}, {"geometry": {"type": "Point", "coordinates": [73.52051710044934, -53.08724656179311]}, "type": "Feature", "id": "91", "properties": {"name": "Heard I. and McDonald Is."}}, {"geometry": {"type": "Point", "coordinates": [-86.61516609633492, 14.826881651917782]}, "type": "Feature", "id": "92", "properties": {"name": "Honduras"}}, {"geometry": {"type": "Point", "coordinates": [16.404128993951623, 45.0804763057065]}, "type": "Feature", "id": "93", "properties": {"name": "Croatia"}}, {"geometry": {"type": "Point", "coordinates": [-72.68527508985338, 18.935025634308055]}, "type": "Feature", "id": "94", "properties": {"name": "Haiti"}}, {"geometry": {"type": "Point", "coordinates": [19.39559116067144, 47.16277506144686]}, "type": "Feature", "id": "95", "properties": {"name": "Hungary"}}, {"geometry": {"type": "Point", "coordinates": [117.24011366213898, -2.2150545634596215]}, "type": "Feature", "id": "96", "properties": {"name": "Indonesia"}}, {"geometry": {"type": "Point", "coordinates": [-4.538739523255257, 54.2241891077143]}, "type": "Feature", "id": "97", "properties": {"name": "Isle of Man"}}, {"geometry": {"type": "Point", "coordinates": [79.61197610255469, 22.885782118284368]}, "type": "Feature", "id": "98", "properties": {"name": "India"}}, {"geometry": {"type": "Point", "coordinates": [104.85189795182721, -10.647851497343693]}, "type": "Feature", "id": "99", "properties": {"name": "Indian Ocean Ter."}}, {"geometry": {"type": "Point", "coordinates": [72.4454122853791, -7.3305975074921585]}, "type": "Feature", "id": "100", "properties": {"name": "Br. Indian Ocean Ter."}}, {"geometry": {"type": "Point", "coordinates": [-8.137935686668497, 53.175448703996544]}, "type": "Feature", "id": "101", "properties": {"name": "Ireland"}}, {"geometry": {"type": "Point", "coordinates": [54.27407004478038, 32.575032915037895]}, "type": "Feature", "id": "102", "properties": {"name": "Iran"}}, {"geometry": {"type": "Point", "coordinates": [43.74353148878189, 33.039705823152644]}, "type": "Feature", "id": "103", "properties": {"name": "Iraq"}}, {"geometry": {"type": "Point", "coordinates": [-18.573961670805186, 64.99575386067318]}, "type": "Feature", "id": "104", "properties": {"name": "Iceland"}}, {"geometry": {"type": "Point", "coordinates": [35.00444692771934, 31.46110101184675]}, "type": "Feature", "id": "105", "properties": {"name": "Israel"}}, {"geometry": {"type": "Point", "coordinates": [12.070013390680563, 42.796626414028154]}, "type": "Feature", "id": "106", "properties": {"name": "Italy"}}, {"geometry": {"type": "Point", "coordinates": [-77.31482593265966, 18.156948776538872]}, "type": "Feature", "id": "107", "properties": {"name": "Jamaica"}}, {"geometry": {"type": "Point", "coordinates": [-2.126899379444998, 49.218373766795764]}, "type": "Feature", "id": "108", "properties": {"name": "Jersey"}}, {"geometry": {"type": "Point", "coordinates": [36.771361040197505, 31.245790912075424]}, "type": "Feature", "id": "109", "properties": {"name": "Jordan"}}, {"geometry": {"type": "Point", "coordinates": [138.03089557691743, 37.59230135301559]}, "type": "Feature", "id": "110", "properties": {"name": "Japan"}}, {"geometry": {"type": "Point", "coordinates": [77.18011865197697, 35.39236324792845]}, "type": "Feature", "id": "111", "properties": {"name": "Siachen Glacier"}}, {"geometry": {"type": "Point", "coordinates": [67.2914935687295, 48.15688066608337]}, "type": "Feature", "id": "112", "properties": {"name": "Kazakhstan"}}, {"geometry": {"type": "Point", "coordinates": [37.79593972926768, 0.5998802154454876]}, "type": "Feature", "id": "113", "properties": {"name": "Kenya"}}, {"geometry": {"type": "Point", "coordinates": [74.54165513285672, 41.46221943455202]}, "type": "Feature", "id": "114", "properties": {"name": "Kyrgyzstan"}}, {"geometry": {"type": "Point", "coordinates": [104.90694324943136, 12.720047856651119]}, "type": "Feature", "id": "115", "properties": {"name": "Cambodia"}}, {"geometry": {"type": "Point", "coordinates": [-45.611105131271415, 0.8600150316640591]}, "type": "Feature", "id": "116", "properties": {"name": "Kiribati"}}, {"geometry": {"type": "Point", "coordinates": [-62.6875526495843, 17.26459950466744]}, "type": "Feature", "id": "117", "properties": {"name": "St. Kitts and Nevis"}}, {"geometry": {"type": "Point", "coordinates": [127.83916086401771, 36.385239834652005]}, "type": "Feature", "id": "118", "properties": {"name": "Korea"}}, {"geometry": {"type": "Point", "coordinates": [20.87249811380869, 42.57078706675286]}, "type": "Feature", "id": "119", "properties": {"name": "Kosovo"}}, {"geometry": {"type": "Point", "coordinates": [47.5870045888837, 29.334312615675387]}, "type": "Feature", "id": "120", "properties": {"name": "Kuwait"}}, {"geometry": {"type": "Point", "coordinates": [103.73772412042676, 18.5021743316029]}, "type": "Feature", "id": "121", "properties": {"name": "Lao PDR"}}, {"geometry": {"type": "Point", "coordinates": [35.880160714965044, 33.92306630567856]}, "type": "Feature", "id": "122", "properties": {"name": "Lebanon"}}, {"geometry": {"type": "Point", "coordinates": [-9.322075726897618, 6.4527849165742]}, "type": "Feature", "id": "123", "properties": {"name": "Liberia"}}, {"geometry": {"type": "Point", "coordinates": [18.00866168716713, 27.030944949138426]}, "type": "Feature", "id": "124", "properties": {"name": "Libya"}}, {"geometry": {"type": "Point", "coordinates": [-60.96969922527704, 13.894794814534256]}, "type": "Feature", "id": "125", "properties": {"name": "Saint Lucia"}}, {"geometry": {"type": "Point", "coordinates": [9.535743117786922, 47.13665835447367]}, "type": "Feature", "id": "126", "properties": {"name": "Liechtenstein"}}, {"geometry": {"type": "Point", "coordinates": [80.70108237823946, 7.612665092241436]}, "type": "Feature", "id": "127", "properties": {"name": "Sri Lanka"}}, {"geometry": {"type": "Point", "coordinates": [28.22723130982884, -29.580031883260013]}, "type": "Feature", "id": "128", "properties": {"name": "Lesotho"}}, {"geometry": {"type": "Point", "coordinates": [23.887193554832393, 55.326109844525575]}, "type": "Feature", "id": "129", "properties": {"name": "Lithuania"}}, {"geometry": {"type": "Point", "coordinates": [6.071822010663919, 49.76725360681418]}, "type": "Feature", "id": "130", "properties": {"name": "Luxembourg"}}, {"geometry": {"type": "Point", "coordinates": [24.91235983315488, 56.8508516268283]}, "type": "Feature", "id": "131", "properties": {"name": "Latvia"}}, {"geometry": {"type": "Point", "coordinates": [113.50932116196458, 22.223116883544662]}, "type": "Feature", "id": "132", "properties": {"name": "Macao"}}, {"geometry": {"type": "Point", "coordinates": [-63.05972851444494, 18.088886109462262]}, "type": "Feature", "id": "133", "properties": {"name": "St-Martin"}}, {"geometry": {"type": "Point", "coordinates": [-8.456157947977436, 29.837629546879292]}, "type": "Feature", "id": "134", "properties": {"name": "Morocco"}}, {"geometry": {"type": "Point", "coordinates": [7.406276768562416, 43.75274626720092]}, "type": "Feature", "id": "135", "properties": {"name": "Monaco"}}, {"geometry": {"type": "Point", "coordinates": [28.456733724130725, 47.1949880441786]}, "type": "Feature", "id": "136", "properties": {"name": "Moldova"}}, {"geometry": {"type": "Point", "coordinates": [46.70473674282834, -19.37189586765055]}, "type": "Feature", "id": "137", "properties": {"name": "Madagascar"}}, {"geometry": {"type": "Point", "coordinates": [73.45713004194968, 3.728709199880986]}, "type": "Feature", "id": "138", "properties": {"name": "Maldives"}}, {"geometry": {"type": "Point", "coordinates": [-102.52345169188904, 23.947537240640372]}, "type": "Feature", "id": "139", "properties": {"name": "Mexico"}}, {"geometry": {"type": "Point", "coordinates": [170.339761223586, 7.003763583153279]}, "type": "Feature", "id": "140", "properties": {"name": "Marshall Is."}}, {"geometry": {"type": "Point", "coordinates": [21.682113460705587, 41.59530893362009]}, "type": "Feature", "id": "141", "properties": {"name": "Macedonia"}}, {"geometry": {"type": "Point", "coordinates": [-3.542690648509362, 17.345815813483597]}, "type": "Feature", "id": "142", "properties": {"name": "Mali"}}, {"geometry": {"type": "Point", "coordinates": [14.405233164255193, 35.92149632205442]}, "type": "Feature", "id": "143", "properties": {"name": "Malta"}}, {"geometry": {"type": "Point", "coordinates": [96.48843321041812, 21.185665992690314]}, "type": "Feature", "id": "144", "properties": {"name": "Myanmar"}}, {"geometry": {"type": "Point", "coordinates": [19.238839392474105, 42.788902592907895]}, "type": "Feature", "id": "145", "properties": {"name": "Montenegro"}}, {"geometry": {"type": "Point", "coordinates": [103.05299764855958, 46.82681543939439]}, "type": "Feature", "id": "146", "properties": {"name": "Mongolia"}}, {"geometry": {"type": "Point", "coordinates": [145.61969651296872, 15.829275627693361]}, "type": "Feature", "id": "147", "properties": {"name": "N. Mariana Is."}}, {"geometry": {"type": "Point", "coordinates": [35.53367542588946, -17.273816425924682]}, "type": "Feature", "id": "148", "properties": {"name": "Mozambique"}}, {"geometry": {"type": "Point", "coordinates": [-10.347798145489138, 20.25736705596925]}, "type": "Feature", "id": "149", "properties": {"name": "Mauritania"}}, {"geometry": {"type": "Point", "coordinates": [-62.185185456249805, 16.739414055259036]}, "type": "Feature", "id": "150", "properties": {"name": "Montserrat"}}, {"geometry": {"type": "Point", "coordinates": [57.57120550607982, -20.277687043323176]}, "type": "Feature", "id": "151", "properties": {"name": "Mauritius"}}, {"geometry": {"type": "Point", "coordinates": [34.28935598705407, -13.218080880593266]}, "type": "Feature", "id": "152", "properties": {"name": "Malawi"}}, {"geometry": {"type": "Point", "coordinates": [109.69762284264706, 3.789868455713105]}, "type": "Feature", "id": "153", "properties": {"name": "Malaysia"}}, {"geometry": {"type": "Point", "coordinates": [17.20963566702186, -22.130325684215133]}, "type": "Feature", "id": "154", "properties": {"name": "Namibia"}}, {"geometry": {"type": "Point", "coordinates": [165.6849237353775, -21.29991805801777]}, "type": "Feature", "id": "155", "properties": {"name": "New Caledonia"}}, {"geometry": {"type": "Point", "coordinates": [9.385458815387269, 17.419124929575656]}, "type": "Feature", "id": "156", "properties": {"name": "Niger"}}, {"geometry": {"type": "Point", "coordinates": [167.9492167821313, -29.051460904383312]}, "type": "Feature", "id": "157", "properties": {"name": "Norfolk Island"}}, {"geometry": {"type": "Point", "coordinates": [8.08943894770574, 9.594114522326564]}, "type": "Feature", "id": "158", "properties": {"name": "Nigeria"}}, {"geometry": {"type": "Point", "coordinates": [-85.03052969505865, 12.847094289647202]}, "type": "Feature", "id": "159", "properties": {"name": "Nicaragua"}}, {"geometry": {"type": "Point", "coordinates": [-169.86994681861742, -19.049457081252903]}, "type": "Feature", "id": "160", "properties": {"name": "Niue"}}, {"geometry": {"type": "Point", "coordinates": [5.281447930074318, 52.100789900247634]}, "type": "Feature", "id": "161", "properties": {"name": "Netherlands"}}, {"geometry": {"type": "Point", "coordinates": [15.34834656222626, 68.75015572054905]}, "type": "Feature", "id": "162", "properties": {"name": "Norway"}}, {"geometry": {"type": "Point", "coordinates": [83.91582640015595, 28.248913649588044]}, "type": "Feature", "id": "163", "properties": {"name": "Nepal"}}, {"geometry": {"type": "Point", "coordinates": [166.93256823412688, -0.5191263895222604]}, "type": "Feature", "id": "164", "properties": {"name": "Nauru"}}, {"geometry": {"type": "Point", "coordinates": [171.48492346599724, -41.811135568953034]}, "type": "Feature", "id": "165", "properties": {"name": "New Zealand"}}, {"geometry": {"type": "Point", "coordinates": [56.09166154827056, 20.605153325703508]}, "type": "Feature", "id": "166", "properties": {"name": "Oman"}}, {"geometry": {"type": "Point", "coordinates": [69.33957937478085, 29.949751503130752]}, "type": "Feature", "id": "167", "properties": {"name": "Pakistan"}}, {"geometry": {"type": "Point", "coordinates": [-80.11915156124735, 8.517507974911181]}, "type": "Feature", "id": "168", "properties": {"name": "Panama"}}, {"geometry": {"type": "Point", "coordinates": [-128.31704202421278, -24.365005346037375]}, "type": "Feature", "id": "169", "properties": {"name": "Pitcairn Is."}}, {"geometry": {"type": "Point", "coordinates": [-74.38242685095804, -9.152803813291419]}, "type": "Feature", "id": "170", "properties": {"name": "Peru"}}, {"geometry": {"type": "Point", "coordinates": [122.88393252927035, 11.77536778087415]}, "type": "Feature", "id": "171", "properties": {"name": "Philippines"}}, {"geometry": {"type": "Point", "coordinates": [134.4080796552302, 7.287427836027389]}, "type": "Feature", "id": "172", "properties": {"name": "Palau"}}, {"geometry": {"type": "Point", "coordinates": [145.2074475235508, -6.464166460829685]}, "type": "Feature", "id": "173", "properties": {"name": "Papua New Guinea"}}, {"geometry": {"type": "Point", "coordinates": [19.39012834932307, 52.12759564417365]}, "type": "Feature", "id": "174", "properties": {"name": "Poland"}}, {"geometry": {"type": "Point", "coordinates": [-66.47307604350215, 18.228130546109536]}, "type": "Feature", "id": "175", "properties": {"name": "Puerto Rico"}}, {"geometry": {"type": "Point", "coordinates": [127.1924797319439, 40.153503109279775]}, "type": "Feature", "id": "176", "properties": {"name": "Dem. Rep. Korea"}}, {"geometry": {"type": "Point", "coordinates": [-8.501043612682988, 39.59550671449783]}, "type": "Feature", "id": "177", "properties": {"name": "Portugal"}}, {"geometry": {"type": "Point", "coordinates": [-58.400137031999016, -23.22823913202707]}, "type": "Feature", "id": "178", "properties": {"name": "Paraguay"}}, {"geometry": {"type": "Point", "coordinates": [35.196287054888536, 31.91613892639994]}, "type": "Feature", "id": "179", "properties": {"name": "Palestine"}}, {"geometry": {"type": "Point", "coordinates": [-144.90494386934643, -14.722274089905577]}, "type": "Feature", "id": "180", "properties": {"name": "Fr. Polynesia"}}, {"geometry": {"type": "Point", "coordinates": [51.184796321161436, 25.30601187626685]}, "type": "Feature", "id": "181", "properties": {"name": "Qatar"}}, {"geometry": {"type": "Point", "coordinates": [24.972930393288042, 45.85243127424081]}, "type": "Feature", "id": "182", "properties": {"name": "Romania"}}, {"geometry": {"type": "Point", "coordinates": [96.68656112308207, 61.98052209186917]}, "type": "Feature", "id": "183", "properties": {"name": "Russia"}}, {"geometry": {"type": "Point", "coordinates": [29.919885152416313, -1.9903383169251838]}, "type": "Feature", "id": "184", "properties": {"name": "Rwanda"}}, {"geometry": {"type": "Point", "coordinates": [-12.219827548514195, 24.229567386505483]}, "type": "Feature", "id": "185", "properties": {"name": "W. Sahara"}}, {"geometry": {"type": "Point", "coordinates": [44.53686271140431, 24.122458407282902]}, "type": "Feature", "id": "186", "properties": {"name": "Saudi Arabia"}}, {"geometry": {"type": "Point", "coordinates": [29.940468119895776, 15.990356685582729]}, "type": "Feature", "id": "187", "properties": {"name": "Sudan"}}, {"geometry": {"type": "Point", "coordinates": [30.247900018577244, 7.308779449223419]}, "type": "Feature", "id": "188", "properties": {"name": "S. Sudan"}}, {"geometry": {"type": "Point", "coordinates": [-14.473492397282298, 14.366241731282715]}, "type": "Feature", "id": "189", "properties": {"name": "Senegal"}}, {"geometry": {"type": "Point", "coordinates": [103.81725592004348, 1.3587608707500953]}, "type": "Feature", "id": "190", "properties": {"name": "Singapore"}}, {"geometry": {"type": "Point", "coordinates": [-36.43318388225988, -54.46488248015062]}, "type": "Feature", "id": "191", "properties": {"name": "S. Geo. and S. Sandw. Is."}}, {"geometry": {"type": "Point", "coordinates": [-9.547794158697968, -12.403559507755908]}, "type": "Feature", "id": "192", "properties": {"name": "Saint Helena"}}, {"geometry": {"type": "Point", "coordinates": [159.63287667836948, -8.921780216922738]}, "type": "Feature", "id": "193", "properties": {"name": "Solomon Is."}}, {"geometry": {"type": "Point", "coordinates": [-11.792712466789713, 8.563295930375906]}, "type": "Feature", "id": "194", "properties": {"name": "Sierra Leone"}}, {"geometry": {"type": "Point", "coordinates": [-88.87164469062125, 13.739437438277042]}, "type": "Feature", "id": "195", "properties": {"name": "El Salvador"}}, {"geometry": {"type": "Point", "coordinates": [12.459223335835885, 43.94186746766134]}, "type": "Feature", "id": "196", "properties": {"name": "San Marino"}}, {"geometry": {"type": "Point", "coordinates": [46.251983950991594, 9.733454963108649]}, "type": "Feature", "id": "197", "properties": {"name": "Somaliland"}}, {"geometry": {"type": "Point", "coordinates": [45.707144869943605, 4.7506287605484685]}, "type": "Feature", "id": "198", "properties": {"name": "Somalia"}}, {"geometry": {"type": "Point", "coordinates": [-56.30319778821446, 46.919187892861444]}, "type": "Feature", "id": "199", "properties": {"name": "St. Pierre and Miquelon"}}, {"geometry": {"type": "Point", "coordinates": [20.78958333627331, 44.22150319932007]}, "type": "Feature", "id": "200", "properties": {"name": "Serbia"}}, {"geometry": {"type": "Point", "coordinates": [6.72429657927255, 0.44391444930847057]}, "type": "Feature", "id": "201", "properties": {"name": "S\u00e3o Tom\u00e9 and Principe"}}, {"geometry": {"type": "Point", "coordinates": [-55.91234569505448, 4.130554129901062]}, "type": "Feature", "id": "202", "properties": {"name": "Suriname"}}, {"geometry": {"type": "Point", "coordinates": [19.479052181064134, 48.70547528132304]}, "type": "Feature", "id": "203", "properties": {"name": "Slovakia"}}, {"geometry": {"type": "Point", "coordinates": [14.804442377556194, 46.115547720698544]}, "type": "Feature", "id": "204", "properties": {"name": "Slovenia"}}, {"geometry": {"type": "Point", "coordinates": [16.74558048694414, 62.77966519310589]}, "type": "Feature", "id": "205", "properties": {"name": "Sweden"}}, {"geometry": {"type": "Point", "coordinates": [31.481936901115688, -26.55843045017432]}, "type": "Feature", "id": "206", "properties": {"name": "Swaziland"}}, {"geometry": {"type": "Point", "coordinates": [-63.057133626978896, 18.050817279332893]}, "type": "Feature", "id": "207", "properties": {"name": "Sint Maarten"}}, {"geometry": {"type": "Point", "coordinates": [55.47603279124375, -4.660990935223645]}, "type": "Feature", "id": "208", "properties": {"name": "Seychelles"}}, {"geometry": {"type": "Point", "coordinates": [38.507882042531634, 35.02547389396986]}, "type": "Feature", "id": "209", "properties": {"name": "Syria"}}, {"geometry": {"type": "Point", "coordinates": [-71.97387881442748, 21.830475717099507]}, "type": "Feature", "id": "210", "properties": {"name": "Turks and Caicos Is."}}, {"geometry": {"type": "Point", "coordinates": [18.64492512909128, 15.33333758498248]}, "type": "Feature", "id": "211", "properties": {"name": "Chad"}}, {"geometry": {"type": "Point", "coordinates": [0.9623284497685523, 8.52531356140525]}, "type": "Feature", "id": "212", "properties": {"name": "Togo"}}, {"geometry": {"type": "Point", "coordinates": [101.00288130355919, 15.11815794183387]}, "type": "Feature", "id": "213", "properties": {"name": "Thailand"}}, {"geometry": {"type": "Point", "coordinates": [71.0136263090644, 38.53045389629966]}, "type": "Feature", "id": "214", "properties": {"name": "Tajikistan"}}, {"geometry": {"type": "Point", "coordinates": [59.37100020614542, 39.11554137419415]}, "type": "Feature", "id": "215", "properties": {"name": "Turkmenistan"}}, {"geometry": {"type": "Point", "coordinates": [125.84438982066483, -8.828891620465512]}, "type": "Feature", "id": "216", "properties": {"name": "Timor-Leste"}}, {"geometry": {"type": "Point", "coordinates": [-174.80987340978598, -20.428431742537633]}, "type": "Feature", "id": "217", "properties": {"name": "Tonga"}}, {"geometry": {"type": "Point", "coordinates": [-61.26567923346816, 10.457334081006877]}, "type": "Feature", "id": "218", "properties": {"name": "Trinidad and Tobago"}}, {"geometry": {"type": "Point", "coordinates": [9.552883589326443, 34.11956246490789]}, "type": "Feature", "id": "219", "properties": {"name": "Tunisia"}}, {"geometry": {"type": "Point", "coordinates": [35.1689534648807, 39.06160290125555]}, "type": "Feature", "id": "220", "properties": {"name": "Turkey"}}, {"geometry": {"type": "Point", "coordinates": [120.95427281363116, 23.753992794953867]}, "type": "Feature", "id": "221", "properties": {"name": "Taiwan"}}, {"geometry": {"type": "Point", "coordinates": [34.813099809324584, -6.275654083316634]}, "type": "Feature", "id": "222", "properties": {"name": "Tanzania"}}, {"geometry": {"type": "Point", "coordinates": [32.36907971370351, 1.2746929873087136]}, "type": "Feature", "id": "223", "properties": {"name": "Uganda"}}, {"geometry": {"type": "Point", "coordinates": [31.383264686503225, 48.996566726455725]}, "type": "Feature", "id": "224", "properties": {"name": "Ukraine"}}, {"geometry": {"type": "Point", "coordinates": [-56.0180705314507, -32.79951534437521]}, "type": "Feature", "id": "225", "properties": {"name": "Uruguay"}}, {"geometry": {"type": "Point", "coordinates": [-112.46167369956744, 45.67954720255104]}, "type": "Feature", "id": "226", "properties": {"name": "United States"}}, {"geometry": {"type": "Point", "coordinates": [63.140015280471275, 41.75554225265226]}, "type": "Feature", "id": "227", "properties": {"name": "Uzbekistan"}}, {"geometry": {"type": "Point", "coordinates": [12.433871766103506, 41.90174985292015]}, "type": "Feature", "id": "228", "properties": {"name": "Vatican"}}, {"geometry": {"type": "Point", "coordinates": [-61.201296949693685, 13.224722689966052]}, "type": "Feature", "id": "229", "properties": {"name": "St. Vin. and Gren."}}, {"geometry": {"type": "Point", "coordinates": [-66.18184123114528, 7.12422421273279]}, "type": "Feature", "id": "230", "properties": {"name": "Venezuela"}}, {"geometry": {"type": "Point", "coordinates": [-64.47146992204712, 18.525857545070625]}, "type": "Feature", "id": "231", "properties": {"name": "British Virgin Is."}}, {"geometry": {"type": "Point", "coordinates": [-64.80301537523924, 17.955006239372537]}, "type": "Feature", "id": "232", "properties": {"name": "U.S. Virgin Is."}}, {"geometry": {"type": "Point", "coordinates": [106.29914697764953, 16.6460167019434]}, "type": "Feature", "id": "233", "properties": {"name": "Vietnam"}}, {"geometry": {"type": "Point", "coordinates": [167.686446357051, -16.226409088434195]}, "type": "Feature", "id": "234", "properties": {"name": "Vanuatu"}}, {"geometry": {"type": "Point", "coordinates": [-177.34834825140558, -13.88737039033706]}, "type": "Feature", "id": "235", "properties": {"name": "Wallis and Futuna Is."}}, {"geometry": {"type": "Point", "coordinates": [-172.16485064026728, -13.75324346380736]}, "type": "Feature", "id": "236", "properties": {"name": "Samoa"}}, {"geometry": {"type": "Point", "coordinates": [47.58676188773278, 15.909280050454155]}, "type": "Feature", "id": "237", "properties": {"name": "Yemen"}}, {"geometry": {"type": "Point", "coordinates": [25.083900925067386, -29.00034095342353]}, "type": "Feature", "id": "238", "properties": {"name": "South Africa"}}, {"geometry": {"type": "Point", "coordinates": [27.7747594636932, -13.458241518646874]}, "type": "Feature", "id": "239", "properties": {"name": "Zambia"}}, {"geometry": {"type": "Point", "coordinates": [29.851441201921887, -19.004204188216786]}, "type": "Feature", "id": "240", "properties": {"name": "Zimbabwe"}}]}